cityname;latitude;longitude;population;countryname;iso3
25 de Mayo;-37.80003253;-67.68329533;17430;Argentina;ARG
28 de Noviembre;-51.65003986;-72.30001612;5300;Argentina;ARG
lesund;62.54541872;6.388023233;45377;Norway;NOR
rebro;59.2803467;15.2199906;95932;Sweden;SWE
rhus;56.157204;10.21068396;232325.5;Denmark;DNK
rnskldsvik;63.31800722;18.71667639;26406;Sweden;SWE
safjrur;66.08331647;-23.14996708;1949.5;Iceland;ISL
stersund;63.1833126;14.64999955;44559;Sweden;SWE
Aalborg;57.03371381;9.916593382;111917.5;Denmark;DNK
Aarau;47.3900041;8.03400361;15501;Switzerland;CHE
Aba;5.100397968;7.34998002;874385;Nigeria;NGA
Abadan;30.33074424;48.2796781;315129;Iran;IRN
Abadla;31.01708478;-2.733306317;14364;Algeria;DZA
Abaetetuba;-1.724530694;-48.88488014;78735;Brazil;BRA
Abai;-26.0295882;-55.94000696;2788.5;Paraguay;PRY
Abakan;53.70368451;91.44500199;161377;Russia;RUS
Abancay;-13.63959511;-72.89000594;53981;Peru;PER
Abau;-10.04260537;148.5650297;230;Papua New Guinea;PNG
Abaza;52.66901898;90.09536861;17638.5;Russia;RUS
Abbotsford;49.05037681;-122.2999874;151683;Canada;CAN
Abbottabad;34.1495034;73.19950069;1032323.5;Pakistan;PAK
Abeche;13.83999371;20.82998409;116252.5;Chad;TCD
Abengourou;6.730375996;-3.490004315;87809;Ivory Coast;CIV
Abeokuta;7.160427265;3.350017455;441231;Nigeria;NGA
Aberdeen;57.17039797;-2.079987021;186577;United Kingdom;GBR
Aberdeen;46.97489626;-123.8143911;24400;United States of America;USA
Aberdeen;45.46511761;-98.48640222;24854;United States of America;USA
Abha;18.2300875;42.50013424;207802.5;Saudi Arabia;SAU
Abidjan;5.319996967;-4.04004826;3496197.5;Ivory Coast;CIV
Abilene;32.4486253;-99.73278609;108008;United States of America;USA
Aboa Station;-75.04959349;-13.41671106;15;Antarctica;ATA
Abohar;30.12042116;74.29002844;130603;India;IND
Aboisso;5.466699052;-3.20000353;37654;Ivory Coast;CIV
Abomey;7.190399596;1.98999711;82154;Benin;BEN
Abong Mbang;3.983696105;13.18331905;7698;Cameroon;CMR
Abra Pampa;-22.7166638;-65.6999797;4480;Argentina;ARG
Abu Dhabi;24.46668357;54.36659338;581861;United Arab Emirates;ARE
Abu Kamal;34.45041526;40.9186287;69190;Syria;SYR
Abuja;9.083333149;7.533328002;869067.5;Nigeria;NGA
Abuna;-9.69539142;-65.35971623;1929;Brazil;BRA
Acapulco;16.84999086;-99.91597905;683860;Mexico;MEX
Acarau;-2.889605287;-40.11999068;21024.5;Brazil;BRA
Acarigua;9.580382913;-69.20002446;202312.5;Venezuela;VEN
Acatlan;18.19996014;-98.04999475;17585.5;Mexico;MEX
Accra;5.550034606;-0.21671574;2042132;Ghana;GHA
Achacachi;-16.08332192;-68.66656865;8447;Bolivia;BOL
Achinsk;56.26998781;90.49999508;112541.5;Russia;RUS
Acu;-5.57962197;-36.91005742;33303;Brazil;BRA
Ad Dakhla;23.71405588;-15.93681087;82146;Morocco;MAR
Ad Damazin;11.77040428;34.34998572;114030;Sudan;SDN
Ad Damman;26.42819175;50.09967037;1411656;Saudi Arabia;SAU
Ad Diwaniyah;31.9889376;44.92396562;338604.5;Iraq;IRQ
Ad Nabk;34.01703086;36.73330277;49775;Syria;SYR
Adana;36.99498863;35.32000403;1245445;Turkey;TUR
Adapazari;40.79997601;30.4150321;260109;Turkey;TUR
Addis Ababa;9.033310363;38.70000443;2928864.5;Ethiopia;ETH
Adelaide;-34.93498777;138.6000048;990677;Australia;AUS
Adelaide River;-13.2495414;131.0999975;237;Australia;AUS
Aden;12.77972251;45.00949011;775301;Yemen;YEM
Adigrat;14.28043194;39.46998328;104021;Ethiopia;ETH
Adiyaman;37.77039349;38.27992672;195497;Turkey;TUR
Adjumani;3.3613889;31.8097222;34700;Uganda;UGA
Ado Ekiti;7.630372741;5.219980834;446749;Nigeria;NGA
Adrar;27.86999005;-0.289967083;56910;Algeria;DZA
Afyon;38.75038535;30.55001094;151564;Turkey;TUR
Agadez;16.99587343;7.98280961;103165.5;Niger;NER
Agadir;30.43998822;-9.620043581;752031.5;Morocco;MAR
Agana;13.4700163;144.750017;61755.5;Guam;GUM
Agapa;71.45037905;89.24999385;10;Russia;RUS
Agartala;23.83540428;91.27999914;203264;India;IND
Agboville;5.940346699;-4.280033611;73027.5;Ivory Coast;CIV
Agdam;40.9052778;45.5563889;0;Azerbaijan;AZE
Agen;44.20041445;0.633335733;46295;France;FRA
Aginskoye;51.10306805;114.5228182;11491;Russia;RUS
Agordat;15.54903668;37.88666907;18728.5;Eritrea;ERI
Agra;27.17042035;78.01502071;1511027.5;India;IND
Agri;39.71983522;43.05131506;87854;Turkey;TUR
Agrinio;38.62176271;21.4077266;59379;Greece;GRC
Agua Prieta;31.32233746;-109.5630388;77264.5;Mexico;MEX
Aguascalientes;21.87945992;-102.2904135;763589.5;Mexico;MEX
Aguelhok;19.45487062;0.856371214;8540;Mali;MLI
Ahar;38.48290814;47.06290482;98993.5;Iran;IRN
Ahmedabad;23.03005292;72.58000362;4547355;India;IND
Ahmednagar;19.11042137;74.75000037;379450;India;IND
Ahuachapan;13.91900399;-89.84500155;34102;El Salvador;SLV
Ahvaz;31.27998863;48.72001298;918572.5;Iran;IRN
Aigua;-34.19999388;-54.75000208;2622;Uruguay;URY
Aiken;33.5494625;-81.72060388;36716.5;United States of America;USA
Aiquile;-18.18954995;-65.18001144;5844;Bolivia;BOL
Aix-en-Provence;43.51999086;5.449992634;145309;France;FRA
Aizawl;23.71039899;92.72001461;274176;India;IND
Ajaccio;41.92706484;8.728293822;46905;France;FRA
Ajdabiya;30.76999392;20.21999548;139095.5;Libya;LBY
Ajmer;26.44999921;74.63998124;553948;India;IND
Aketi;2.740464497;23.7799849;46881;Congo (Kinshasa);COD
Akhtubinsk;48.27871848;46.16869584;38179;Russia;RUS
Akita;39.70999086;140.0899914;300962.5;Japan;JPN
Akjoujt;19.74699906;-14.39099948;370;Mauritania;MRT
Akola;20.70998781;77.01001745;466179.5;India;IND
Akron;41.07039878;-81.51999597;451155;United States of America;USA
Aksu;41.15000633;80.25002641;309704.5;China;CHN
Aksum;14.13041526;38.72000321;44368;Ethiopia;ETH
Akure;7.250395934;5.199982054;420594;Nigeria;NGA
Akureyi;65.66657188;-18.10001693;14754;Iceland;ISL
Al Ahmadi;29.0769448;48.08377274;68763;Kuwait;KWT
Al Amarah;31.84160809;47.15116817;334154.5;Iraq;IRQ
Al Aqabah;29.52699485;35.07769324;95048;Jordan;JOR
Al Ayn;24.2304706;55.73999792;352500.5;United Arab Emirates;ARE
Al Bayda;32.76041506;21.62001339;1794;Libya;LBY
Al Bayda;13.9789981;45.57400265;37821;Yemen;YEM
Al Fallujah;33.34766604;43.77726558;210989;Iraq;IRQ
Al Fujayrah;25.12343935;56.33748083;78289;United Arab Emirates;ARE
Al Ghaydah;16.23940798;52.1637821;23702;Yemen;YEM
Al Hasakah;36.48328859;40.7500085;104819.5;Syria;SYR
Al Hillah;32.47213808;44.42172237;479652.5;Iraq;IRQ
Al Hillah;23.4894564;46.75636023;594605;Saudi Arabia;SAU
Al Hudaydah;14.79794558;42.95297481;627610.5;Yemen;YEM
Al Hufuf;25.3487486;49.58559322;518694.5;Saudi Arabia;SAU
Al Jaghbub;29.75039207;24.51658077;1744;Libya;LBY
Al Jahra;29.33747154;47.6580623;194193;Kuwait;KWT
Al Jawf;24.19998151;23.28998897;24132;Libya;LBY
Al Jubayl;27.00464235;49.64600297;235237;Saudi Arabia;SAU
Al Karak;31.1851107;35.70473507;50870;Jordan;JOR
Al Khalil;31.54059287;35.09557328;220395.5;Palestine;PSE
Al Kharj;24.15556561;47.3120369;298428;Saudi Arabia;SAU
Al Khums;32.66042116;14.25999752;192502;Libya;LBY
Al Kut;32.49071576;45.83037024;318341.5;Iraq;IRQ
Al Ladhiqiyah;35.539987;35.77997595;439664;Syria;SYR
Al Mafraq;32.28329707;36.23329852;57118;Jordan;JOR
Al Marj;32.50045677;20.82998409;127427.5;Libya;LBY
Al Mubarraz;25.42905377;49.5659045;294682;Saudi Arabia;SAU
Al Mukalla;14.54116538;49.12593135;194080.5;Yemen;YEM
Al Musayyib;32.778631;44.28999914;59677.5;Iraq;IRQ
Al Qamishli;37.03002525;41.22997921;104107;Syria;SYR
Al Qunaytirah;33.12566408;35.82359086;2235.5;Syria;SYR
Al Qunfudhah;19.12636354;41.07887732;157;Saudi Arabia;SAU
Al Quwayiyah;24.07371014;45.28063635;8712;Saudi Arabia;SAU
Al Wajh;26.23241559;36.4635518;34936.5;Saudi Arabia;SAU
Alagoinhas;-12.13999673;-38.42999048;123379;Brazil;BRA
Alajuela;10.02002016;-84.23003727;217618.5;Costa Rica;CRI
Alamogordo;32.89947634;-105.9597187;33710.5;United States of America;USA
Alapayevsk;57.84650657;61.69152095;43663.5;Russia;RUS
Alappuzha;9.500413634;76.37000484;176783;India;IND
Alatyr;54.8503587;46.59998734;44291.5;Russia;RUS
Alausi;-2.18995807;-78.84997807;14294;Ecuador;ECU
Alayat Samail;23.3031887;57.97820756;32862.5;Oman;OMN
Alba Lulia;46.07700313;23.58000059;66085;Romania;ROU
Albacete;39.00034426;-1.869999839;127597;Spain;ESP
Albany;-35.0169466;117.8916048;25179;Australia;AUS
Albany;44.62049217;-123.086942;48066.5;United States of America;USA
Albany;31.57873008;-84.15582992;82280;United States of America;USA
Albany;42.67001691;-73.81994918;484286;United States of America;USA
Albert Lea;43.64778668;-93.36870427;19063.5;United States of America;USA
Albuquerque;35.10497479;-106.6413308;725723;United States of America;USA
Albury;-36.06003538;146.9200138;68534;Australia;AUS
Aldama;22.92042137;-98.06996769;11367;Mexico;MEX
Aldan;58.60299786;125.38939;18571.5;Russia;RUS
Aleg;17.057997;-13.90899556;8388;Mauritania;MRT
Aleksandrovsk Sakhalinskiy;50.89749921;142.1561185;9263.5;Russia;RUS
Alekseyevka;50.65348309;38.69307979;38633.5;Russia;RUS
Aleksin;54.5143327;37.09436601;59194;Russia;RUS
Alenquer;-1.939585756;-54.78999964;26290;Brazil;BRA
Aleppo;36.22997072;37.1700203;2170132;Syria;SYR
Alert;82.48332318;-62.24998356;97.5;Canada;CAN
Alexander Bay;-28.60834552;16.50332312;1476;South Africa;ZAF
Alexandria;31.20001935;29.94999589;3988258;Egypt;EGY
Alexandria;43.90163107;25.28670654;49346;Romania;ROU
Alexandria;38.82043276;-77.09998153;127273;United States of America;USA
Alexandria;31.31109784;-92.44501388;60876;United States of America;USA
Alexandroupoli;40.84861937;25.87440978;48711.5;Greece;GRC
Aleysk;52.49176882;82.77767574;22477.5;Russia;RUS
Algeciras;36.12671215;-5.466530363;106687.5;Spain;ESP
Algha;49.90316713;57.33499101;28267;Kazakhstan;KAZ
Algiers;36.7630648;3.05055253;2665831.5;Algeria;DZA
Ali Bayramli;39.93230288;48.92025915;70452;Azerbaijan;AZE
Ali Sabih;11.15622988;42.71252437;32165.5;Djibouti;DJI
Alicante;38.3512199;-0.483640721;296345;Spain;ESP
Alice;27.75046246;-98.07048446;21122;United States of America;USA
Alice Springs;-23.70099648;133.8800345;26949;Australia;AUS
Aligarh;27.89221092;78.06178788;779103.5;India;IND
Alipur Duar;26.48374392;89.56666703;127342;India;IND
Aliwal North;-30.68956216;26.71003861;26423;South Africa;ZAF
Allahabad;25.45499534;81.84000688;1137219;India;IND
Allakaket;66.56548342;-152.6454995;97;United States of America;USA
Allanmyo;19.37831199;95.22792354;48446.5;Myanmar;MMR
Allende;28.32998781;-100.8499789;18268.5;Mexico;MEX
Allentown;40.59998822;-75.50002751;300980.5;United States of America;USA
Alliance;42.10139528;-102.8701915;8269;United States of America;USA
Almaty;43.32498985;76.91503617;1096256;Kazakhstan;KAZ
Almenara;-16.17003497;-40.70000696;22173.5;Brazil;BRA
Almeria;36.83034751;-2.429991497;152032.5;Spain;ESP
Almetyevsk;54.90040733;52.31994828;117971;Russia;RUS
Almirante;9.30001243;-82.3999681;7442.5;Panama;PAN
Alor Setar;6.113307718;100.3729325;276921.5;Malaysia;MYS
Alotau;-10.30207273;150.4590743;11624;Papua New Guinea;PNG
Alpena;45.06160219;-83.43269576;14524;United States of America;USA
Alpine;30.36071657;-103.6650009;6429.5;United States of America;USA
Al-Qatif;26.5196332;50.01151037;233575.5;Saudi Arabia;SAU
Alta;69.96664532;23.24167151;12077;Norway;NOR
Alta Floresta;-9.900030091;-55.90998295;40466;Brazil;BRA
Alta Gracia;-31.65999388;-64.4299797;30593;Argentina;ARG
Altagracia de Orituco;9.85041811;-66.37998987;34427;Venezuela;VEN
Altamira;-3.199612204;-52.21000208;56769;Brazil;BRA
Altata;24.63604509;-107.9162153;750;Mexico;MEX
Altay;47.86659894;88.11662634;140670.5;China;CHN
Altay;46.39612022;95.8450435;32488;Mongolia;MNG
Altdorf;46.87900214;8.638002584;8678;Switzerland;CHE
Alto Rio Sanguer;-45.03328611;-70.83328394;1548;Argentina;ARG
Alton;38.89099693;-90.18422164;57386;United States of America;USA
Altoona;40.51859784;-78.39496708;62784.5;United States of America;USA
Alvorada;-12.47000242;-49.08200179;9273;Brazil;BRA
Alwar;27.5453587;76.6049259;283228;India;IND
Alxa Zuoqi;38.83901044;105.6686299;56387;China;CHN
Am Timan;11.03329165;20.28329911;29664;Chad;TCD
Amahai;-3.328131491;128.9404911;26172.5;Indonesia;IDN
Amapa;2.049989847;-50.80001062;1947;Brazil;BRA
Amarillo;35.22998008;-101.8299966;178526;United States of America;USA
Amasya;40.65368003;35.83304765;77700.5;Turkey;TUR
Ambala;30.32002138;76.82000321;146787;India;IND
Ambanja;-13.68289996;48.45000362;26231.5;Madagascar;MDG
Ambarchik;69.65100568;162.3335949;0;Russia;RUS
Ambato;-1.269600811;-78.61999211;217897;Ecuador;ECU
Ambatondrazaka;-17.83287921;48.41667232;41843;Madagascar;MDG
Ambler;67.08648521;-157.8514091;258;United States of America;USA
Ambon;-3.716686586;128.2000195;227561;Indonesia;IDN
Ambriz;-7.85498696;13.12502803;17000;Angola;AGO
Amderma;69.76301434;61.66769812;282;Russia;RUS
Americana;-22.74994342;-47.32998987;337747;Brazil;BRA
Ames;42.05385297;-93.61972254;56855;United States of America;USA
Amherst;45.81656903;-64.21658187;8631.5;Canada;CAN
Amiens;49.90037661;2.300004027;118908.5;France;FRA
Amman;31.95002525;35.93329993;1060000;Jordan;JOR
Ammochostos;35.12502525;33.95001013;33016.5;Northern Cyprus;CYN
Amol;36.4713255;52.36330481;210516;Iran;IRN
Amos;48.56663373;-78.11666366;10475.5;Canada;CAN
Amravati;20.94997316;77.77002274;669144;India;IND
Amritsar;31.63999249;74.86999304;1152225;India;IND
Amsterdam;52.34996869;4.916640176;886318;Netherlands;NLD
AmundsenScott South Pole Station;-89.98289386;139.2669926;125;Antarctica;ATA
Amursk;50.22283754;136.8974214;45901.5;Russia;RUS
An Nabk;31.33330205;37.33329653;7500;Saudi Arabia;SAU
An Najaf;32.00033225;44.33537105;612776;Iraq;IRQ
An Nasiriyah;31.04294883;46.26755286;425898;Iraq;IRQ
Anaco;9.440003885;-64.4600037;100118;Venezuela;VEN
Anadyr;64.73699038;177.4749963;10332;Russia;RUS
Anapolis;-16.31958657;-48.9599679;278595.5;Brazil;BRA
Anatuya;-28.46613198;-62.83330713;14133;Argentina;ARG
Anbyon;39.02817202;127.5185624;34993.5;North Korea;PRK
Anchorage;61.21996991;-149.9002149;252068;United States of America;USA
Ancona;43.60037355;13.49994055;95599;Italy;ITA
Ancud;-41.86996499;-73.82997441;24241;Chile;CHL
Anda;46.39999595;125.3200402;181402;China;CHN
Andamooka;-30.43097329;137.1655704;528;Australia;AUS
Anderson;34.50374534;-82.6502629;43475.5;United States of America;USA
Andijon;40.79000246;72.33996659;486950;Uzbekistan;UZB
Andkhvoy;36.93165916;65.10149369;50469;Afghanistan;AFG
Andoany;-13.40002317;48.26660396;20535.5;Madagascar;MDG
Andoas;-2.902059307;-76.40247888;10;Peru;PER
Andong;36.56591921;128.7250004;123920.5;South Korea;KOR
Andorra;42.50000144;1.516485961;38127;Andorra;AND
Andradina;-20.90959064;-51.37994938;45715;Brazil;BRA
Androka;-25.02194623;44.07494694;174;Madagascar;MDG
Ang Thong;14.58330306;100.4499997;13738;Thailand;THA
Angangxi;47.16005292;123.8000297;24317;China;CHN
Angarsk;52.56000755;103.9200028;231719;Russia;RUS
Angeles;15.14505617;120.5450862;314493;Philippines;PHL
Angers;47.48000755;-0.530029949;178329.5;France;FRA
Angoche;-16.23003131;39.9100081;57835;Mozambique;MOZ
Angol;-37.79000731;-72.71001693;38384.5;Chile;CHL
Angra do Heroismo;38.65039146;-27.21666976;11136.5;Portugal;PRT
Angren;41.03037539;70.15493201;164513.5;Uzbekistan;UZB
Aniak;61.5787077;-159.5221857;501;United States of America;USA
Ankang;32.67998069;109.0200016;1025000;China;CHN
Ankara;39.92723859;32.86439164;3511689.5;Turkey;TUR
Anlu;31.26998924;113.670002;71198;China;CHN
Ann Arbor;42.30037539;-83.71999089;189893;United States of America;USA
Anna Regina;7.270420551;-58.50005742;3113;Guyana;GUY
Annaba;36.92000612;7.759980834;355047;Algeria;DZA
Annapolis;38.9783301;-76.49249923;58776;United States of America;USA
Annecy;45.89997479;6.116670287;77490.5;France;FRA
Anqing;30.49995872;117.0500024;469579;China;CHN
Ansan;37.34806785;126.8595328;695110.5;South Korea;KOR
Anshan;41.11502138;122.9400305;1419137.5;China;CHN
Anshun;26.25039899;105.9300093;600468;China;CHN
Antalaha;-14.88334349;50.28332841;40668;Madagascar;MDG
Antalya;36.88998212;30.69997595;703468.5;Turkey;TUR
Antananarivo;-18.91663735;47.5166239;1544216.5;Madagascar;MDG
Antigonish;45.62691652;-61.99819015;5871;Canada;CAN
Antigua Guatemala;14.5666981;-90.73330161;39368;Guatemala;GTM
Antioch;36.23333409;36.11667656;154803;Turkey;TUR
Antofagasta;-23.64999184;-70.40000289;295539;Chile;CHL
Antsirabe;-19.85001707;47.03329423;307921;Madagascar;MDG
Antsiranana;-12.27650152;49.3115261;76312;Madagascar;MDG
Antsohihy;-14.86608356;47.98336544;15258.5;Madagascar;MDG
Antwerpen;51.22037355;4.415017048;689902.5;Belgium;BEL
Anuradhapura;8.349992898;80.38329993;89622.5;Sri Lanka;LKA
Anxi;40.50043357;95.79998165;17886;China;CHN
Anyang;36.07997988;114.3500122;834064.5;China;CHN
Anzhero Sudzhensk;56.08002525;86.04000891;83109;Russia;RUS
Aomori;40.82503908;140.7100052;281571.5;Japan;JPN
Aosta;45.73700107;7.315002596;34062;Italy;ITA
Apalachicola;29.72561322;-84.99252303;2134;United States of America;USA
Apatity;67.57307049;33.39304154;64046.5;Russia;RUS
Apatzingan;19.07998395;-102.3500165;92616.5;Mexico;MEX
Apia;-13.84154504;-171.7386416;49812;Samoa;WSM
Apodi;-5.650005271;-37.80000309;8586;Brazil;BRA
Apolo;-14.71958087;-68.41999455;4189;Bolivia;BOL
Appenzell;47.3333041;9.416700505;5649;Switzerland;CHE
Appleton;44.26867902;-88.40050623;136888.5;United States of America;USA
Apsheronsk;44.46871848;39.72872717;43163.5;Russia;RUS
Apucarana;-23.54999795;-51.4700214;102577;Brazil;BRA
Aqadyr;48.27486859;72.85988318;5359.5;Kazakhstan;KAZ
Aqsay;51.17143597;53.03489172;30404.5;Kazakhstan;KAZ
Aqsu;52.45019513;71.9597314;8543;Kazakhstan;KAZ
Aqtau;43.6231887;51.2365002;4479;Kazakhstan;KAZ
Aqtobe;50.28001752;57.16998816;260493;Kazakhstan;KAZ
Aquidauana;-20.46961749;-55.79001611;38053;Brazil;BRA
Ar Ramadi;33.42001304;43.29998205;284830;Iraq;IRQ
Ar Raqqah;35.93037661;39.0199849;175600.5;Syria;SYR
Ar Rutbah;33.0384601;40.28445552;17199.5;Iraq;IRQ
Aracaju;-10.90002073;-37.11996708;587765.5;Brazil;BRA
Aracati;-4.559994284;-37.77003076;28126.5;Brazil;BRA
Aracatuba;-21.20998574;-50.45000615;166305;Brazil;BRA
Aracuai;-16.85960529;-42.06994918;15301.5;Brazil;BRA
Arad;46.17000999;21.31998002;159338;Romania;ROU
Araguaina;-7.190014629;-48.21001367;50444;Brazil;BRA
Araguari;-18.64001341;-48.19998845;79910.5;Brazil;BRA
Arak;25.2799931;3.749993041;423251;Algeria;DZA
Arak;34.08041201;49.70000484;463449;Iran;IRN
Aral;46.79997154;61.66661291;30185;Kazakhstan;KAZ
Aranyaprathet;13.68235476;102.4969372;21354;Thailand;THA
Araouane;18.90002077;-3.529950197;4026;Mali;MLI
Arapiraca;-9.750013409;-36.66999455;177115;Brazil;BRA
Arapongas;-23.41000649;-51.43004968;91203.5;Brazil;BRA
Arar;30.99000633;41.02068966;185278;Saudi Arabia;SAU
Ararangua;-28.94000486;-49.49998661;42198.5;Brazil;BRA
Ararat;-37.27954751;142.9099743;5464;Australia;AUS
Arauca;7.090664082;-70.76163456;46530.5;Colombia;COL
Arawa;-6.228000033;155.5659907;40266;Papua New Guinea;PNG
Araxa;-19.5795943;-46.95001306;70159.5;Brazil;BRA
Arba Minch;6.040004699;37.54999711;54343.5;Ethiopia;ETH
Arcata;40.88519045;-124.0882245;19052;United States of America;USA
Archangel;64.57495892;40.5450081;295186.5;Russia;RUS
Arcoverde;-8.420017071;-37.06999597;53066;Brazil;BRA
Arctic Bay;73.03330568;-85.16662093;604;Canada;CAN
Ardabil;38.25000246;48.30003861;412678;Iran;IRN
Ardmore;34.1810777;-97.12940495;24467.5;United States of America;USA
Arecibo;18.44002301;-66.72999435;59312.5;Puerto Rico;PRI
Arendal;58.46475606;8.766000553;30916;Norway;NOR
Arequipa;-16.41999388;-71.53001144;775785;Peru;PER
Arezzo;43.46172569;11.87497514;82613;Italy;ITA
Argentia;47.30043194;-53.98999679;1063;Canada;CAN
Arica;-18.50002195;-70.28998377;178446.5;Chile;CHL
Aripuana;-9.169997133;-60.64000431;26983;Brazil;BRA
Ariquemes;-9.939614239;-63.07998458;58096;Brazil;BRA
Arjona;10.26003135;-75.34998499;47225;Colombia;COL
Arlington;32.68476076;-97.02023849;545107.5;United States of America;USA
Arlit;18.81997398;7.32998124;90000;Niger;NER
Arlon;49.68330313;5.816700472;26179;Belgium;BEL
Armavir;45.00039146;41.13003699;191813.5;Russia;RUS
Armenia;4.534282653;-75.68112757;314797.5;Colombia;COL
Armidale;-30.51231199;151.667476;21793.5;Australia;AUS
Arnhem;51.98799603;5.922999562;141674;Netherlands;NLD
Arqalyq;50.24180279;66.89761145;48760.5;Kazakhstan;KAZ
Arras;50.28332481;2.783333698;55608.5;France;FRA
Arrecife;28.96904923;-13.53783283;47182.5;Spain;ESP
Arroyos y Esteros;-25.04995807;-57.08998845;2755;Paraguay;PRY
Arsenyev;44.16230308;133.2823449;56721;Russia;RUS
Artashat;39.9538889;44.5505556;20562;Armenia;ARM
Artemisa;22.81339947;-82.76188399;46024.5;Cuba;CUB
Artemovsk;54.34873557;93.43552649;4948;Russia;RUS
Artemovskiy;57.36519228;61.86975297;39194.5;Russia;RUS
Artigas;-30.41598712;-56.48602014;32072.5;Uruguay;URY
Artigas Base;-62.17388669;-58.86386407;34.5;Antarctica;ATA
Artvin;41.18300114;41.81799654;27899.5;Turkey;TUR
Arua;3.020369892;30.90001542;154700;Uganda;UGA
Arusha;-3.36001585;36.66999914;330605;Tanzania;TZA
Arvayheer;46.24997927;102.7665848;28053;Mongolia;MNG
Arviat;61.10859211;-94.05860672;1868;Canada;CAN
Arxan;47.18330731;119.9666202;32023;China;CHN
Arys;42.43687868;68.80483354;39466.5;Kazakhstan;KAZ
Arzamas;55.39998924;43.80000321;126038;Russia;RUS
As Salt;32.03919293;35.72721431;110439;Jordan;JOR
As Samawah;31.3098576;45.28027462;163934;Iraq;IRQ
As Sib;23.68024579;58.18253617;237816;Oman;OMN
As Sidr;30.67041343;18.26662634;50;Libya;LBY
As Sulaymaniyah;35.56127769;45.43085974;654318;Iraq;IRQ
As Sulayyil;20.462251;45.57224646;20858.5;Saudi Arabia;SAU
As Suwayda;32.70041872;36.5665946;65650;Syria;SYR
Asadabad;34.86600004;71.15000459;48400;Afghanistan;AFG
Asahikawa;43.75501528;142.3799808;341079.5;Japan;JPN
Asansol;23.6833333;86.9833333;1328000;India;IND
Asbest;57.02304262;61.45804683;77915.5;Russia;RUS
Ascension;-15.69957273;-63.07998458;12085;Bolivia;BOL
Ascension;31.10002545;-107.979983;10761;Mexico;MEX
Asela;7.950404886;39.1399259;82240;Ethiopia;ETH
Ash Shatrah;31.41752545;46.17722245;122340.5;Iraq;IRQ
Ash Shihr;14.75931744;49.60915767;54274;Yemen;YEM
Asha;54.99799827;57.27261755;35944.5;Russia;RUS
Ashburton;-43.89790322;171.7300756;8895;New Zealand;NZL
Asheville;35.60119773;-82.55414474;105775;United States of America;USA
Ashgabat;37.94999493;58.38329911;652841;Turkmenistan;TKM
Ashtarak;40.3016667;44.3591667;18779;Armenia;ARM
Asino;56.99312197;86.16268876;24732.5;Russia;RUS
Asmara;15.33333925;38.93332353;592366;Eritrea;ERI
Asosa;10.06699404;34.5333337;24192;Ethiopia;ETH
Assab;13.01001853;42.72999101;105496;Eritrea;ERI
Assen;53.00000109;6.550002585;62237;Netherlands;NLD
Assis;-22.65961302;-50.41998214;79133;Brazil;BRA
Astana;51.1811253;71.42777421;335312.5;Kazakhstan;KAZ
Asti;44.92998232;8.209979206;63410.5;Italy;ITA
Astoria;46.18838096;-123.8299974;9773;United States of America;USA
Astrakhan;46.34865541;48.05498897;493363.5;Russia;RUS
Asuncion;-25.29640298;-57.64150517;940846.5;Paraguay;PRY
Aswan;24.08750775;32.8989115;277351.5;Egypt;EGY
Asyut;27.18997988;31.17994665;420585;Egypt;EGY
At Bashy;41.17248557;75.79680985;15413.5;Kyrgyzstan;KGZ
At Tafilah;30.83333404;35.60000464;25429;Jordan;JOR
At Taif;21.26222801;40.38227901;594065;Saudi Arabia;SAU
Atakpame;7.530042947;1.120024372;74757;Togo;TGO
Atamyrat;37.82480878;65.19973059;32205;Turkmenistan;TKM
'Ataq;14.55000311;46.80000058;37315;Yemen;YEM
Atar;20.51664044;-13.04998926;44265;Mauritania;MRT
Atasu;48.69032127;71.64993119;16400;Kazakhstan;KAZ
Atbara;17.70999005;33.97998246;138271;Sudan;SDN
Atbasar;51.82188723;68.34770382;35308;Kazakhstan;KAZ
Athabasca;54.71703351;-113.2665853;2399.5;Canada;CAN
Athens;37.98332623;23.73332108;1985568.5;Greece;GRC
Athens;33.96129783;-83.3780221;78017.5;United States of America;USA
Atherton;-17.27027789;145.469353;6132.5;Australia;AUS
Ati;13.21706016;18.33328894;24723.5;Chad;TCD
Atikokan;48.75039512;-91.61658899;3625;Canada;CAN
Atka;52.19648968;-174.2004887;61;United States of America;USA
Atkarsk;51.87645754;44.99610592;23315.5;Russia;RUS
Atlanta;33.83001385;-84.39994938;2464454;United States of America;USA
Atlantic City;39.36463727;-74.4233232;58563.5;United States of America;USA
Atlixco;18.90002077;-98.44999618;91866.5;Mexico;MEX
Atoyac;17.19999534;-100.4300304;19798;Mexico;MEX
Atqasuk;70.4693795;-157.395778;201;United States of America;USA
Attapu;14.8079971;106.8390005;4297;Laos;LAO
Attawapiskat;52.91662661;-82.43332524;1802;Canada;CAN
Atyrau;47.11269147;51.92002437;170583;Kazakhstan;KAZ
Auburn;32.60970074;-85.48083948;61881;United States of America;USA
Auckland;-36.850013;174.7649808;759510;New Zealand;NZL
Augsburg;48.35000612;10.89999589;309092.5;Germany;DEU
Augusta;33.46081158;-81.98498051;152895.5;United States of America;USA
Augusta;44.31056276;-69.77998906;21301;United States of America;USA
Aurangabad;24.7704118;84.38000688;95929;India;IND
Aurangabad;19.89569643;75.32030147;1064720.5;India;IND
Aurora;39.69585736;-104.808497;431966.5;United States of America;USA
Aurora;41.76539512;-88.29999557;273949.5;United States of America;USA
Austin;30.26694969;-97.74277836;919684;United States of America;USA
Autlan;19.77001935;-104.3699966;44912;Mexico;MEX
Auxerre;47.80042727;3.566593382;38034;France;FRA
Avare;-23.1100248;-48.9300214;70709;Brazil;BRA
Aveiro;40.64100311;-8.650997534;54162;Portugal;PRT
Awasa;7.059996077;38.47699862;133097;Ethiopia;ETH
Aweil;8.766556619;27.40002234;42725;South Sudan;SSD
Awjilah;29.10802818;21.2869071;6610;Libya;LBY
Awka;6.210433572;7.06999711;400828.5;Nigeria;NGA
Ayacucho;-13.17502399;-74.2199506;153173.5;Peru;PER
Ayakoz;47.96473248;80.42970536;39670;Kazakhstan;KAZ
Ayan;56.45424113;138.1673305;1286;Russia;RUS
Ayapel;8.330407531;-75.15002303;23120.5;Colombia;COL
Ayaviri;-14.87957111;-70.59999068;12524.5;Peru;PER
Aybak;36.26100015;68.04000051;24000;Afghanistan;AFG
Aydin;37.8499752;27.85002071;180939.5;Turkey;TUR
Ayorou;14.73179974;0.919468138;14001;Niger;NER
Ayoun el Atrous;16.66659121;-9.616658774;1423;Mauritania;MRT
Ayr;-19.57024087;147.3994677;7166;Australia;AUS
Ayr;55.4503996;-4.61667973;57277.5;United Kingdom;GBR
Ayutla;16.90037539;-99.22000086;9897;Mexico;MEX
Ayutthaya;14.35879925;100.5684244;113788.5;Thailand;THA
Az Aubayr;30.38916445;47.70798173;192447.5;Iraq;IRQ
Az Zahran;26.29143007;50.15832312;54373;Saudi Arabia;SAU
Az Zarqa;32.06999208;36.1000081;843678;Jordan;JOR
Az Zawiyah;32.76041506;12.71998816;193061.5;Libya;LBY
Azare;11.68040977;10.19001339;87912.5;Nigeria;NGA
Azogues;-2.740002015;-78.84003036;51982;Ecuador;ECU
Azua;18.45399613;-70.7290016;59139;Dominican Republic;DOM
Azul;-36.7796297;-59.86999964;43407.5;Argentina;ARG
Brum;59.91348606;11.34723651;113659;Norway;NOR
Babahoyo;-1.7995943;-79.54001347;59873;Ecuador;ECU
Babanusa;11.33335085;27.79999792;19700;Sudan;SDN
Babati;-4.219549948;35.75000362;19117;Tanzania;TZA
B'abda;33.83330406;35.53329652;9000;Lebanon;LBN
Babruysk;53.12656211;29.19278113;212821.5;Belarus;BLR
Bac Giang;21.26700808;106.2000187;53728;Vietnam;VNM
Bac Kan;22.1333333;105.8333333;29227;Vietnam;VNM
Bac Lieu;9.280375385;105.7199963;187500;Vietnam;VNM
Bacabal;-4.229988588;-44.79998926;57296.5;Brazil;BRA
Bacau;46.57843467;26.91963822;185532;Romania;ROU
Bacolod;10.63168825;122.9816817;730587;Philippines;PHL
Badajoz;38.8804291;-6.96997278;115638.5;Spain;ESP
Baddeck;46.09998842;-60.75397669;852;Canada;CAN
Bade;24.9575;121.2988889;172065;Taiwan;TWN
Badulla;6.983693867;81.0499259;44908.5;Sri Lanka;LKA
Bafang;5.170393696;10.17998816;86916.5;Cameroon;CMR
Bafata;12.16699506;-14.66601465;26112.5;Guinea Bissau;GNB
Bafia;4.750393493;11.23000159;41201;Cameroon;CMR
Bafoulabe;13.80038373;-10.82002201;26823;Mali;MLI
Bafoussam;5.490425841;10.40994828;290768;Cameroon;CMR
Bafra;41.56817202;35.90689327;95198;Turkey;TUR
Bafwasende;1.083847269;27.26659379;149;Congo (Kinshasa);COD
Bagamoyo;-6.439621156;38.89001868;41609.5;Tanzania;TZA
Bagdarin;54.43330406;113.6000321;4676;Russia;RUS
Bage;-31.32001463;-54.10001591;102519;Brazil;BRA
Baghdad;33.3386485;44.39386877;5054000;Iraq;IRQ
Baghlan;36.13933026;68.69925858;163598.5;Afghanistan;AFG
Baglung;28.26669606;83.58329762;23296;Nepal;NPL
Bago;17.32001385;96.51497676;264347;Myanmar;MMR
Baguio City;16.42999066;120.5699426;360269;Philippines;PHL
Bahawalpur;29.38997479;71.67499426;552607;Pakistan;PAK
Bahia Blanca;-38.74002684;-62.2650214;279041;Argentina;ARG
Bahir Dar;11.60005292;37.38328894;187823.5;Ethiopia;ETH
Bahraich;27.62041872;81.66993974;182218;India;IND
Baia Mare;47.65945396;23.57906693;134630;Romania;ROU
Baicheng;45.62001772;122.8200378;351915.5;China;CHN
Baie-Comeau;49.22266604;-68.15799504;8808;Canada;CAN
Baiquan;47.60183474;126.0818542;52679.5;China;CHN
Bairin Zuoqi;43.98370933;119.1833606;48540;China;CHN
Bairnsdale;-37.82959145;147.6099975;9427;Australia;AUS
Baishan;41.90001223;126.4299983;330000;China;CHN
Bajram Curri;42.33330007;20.08330257;7967;Albania;ALB
Bakal;54.94588259;58.79588375;24160.5;Russia;RUS
Baker Lake;64.31699017;-96.01665633;1584;Canada;CAN
Bakersfield;35.36997154;-119.0199809;367259;United States of America;USA
Baku;40.39527203;49.86221716;2007150;Azerbaijan;AZE
Balakhna;56.49434104;43.59438269;62487;Russia;RUS
Balakovo;52.02998822;47.80001745;172821.5;Russia;RUS
Balancan;17.79995872;-91.52997929;7666.5;Mexico;MEX
Balashov;51.55350568;43.16309119;84107;Russia;RUS
Balboa;8.949982116;-79.56665267;62882;Panama;PAN
Balcarce;-37.83331216;-58.24999516;18967;Argentina;ARG
Balikesir;39.6503821;27.89001827;249833.5;Turkey;TUR
Balikpapan;-1.250015443;116.8300158;439885.5;Indonesia;IDN
Balkanabat;39.51238019;54.36493974;99324.5;Turkmenistan;TKM
Balkh;36.75011985;66.89973018;147426;Afghanistan;AFG
Ballarat;-37.55958209;143.8400468;73404;Australia;AUS
Ballina;-28.86135333;153.5679801;13997.5;Australia;AUS
Balqash;46.8532241;74.95024654;80586;Kazakhstan;KAZ
Balsas;-7.520020326;-46.04999048;39761.5;Brazil;BRA
Baltasar Brum;-30.7300248;-57.31997441;2432;Uruguay;URY
Balti;47.75908612;27.90531449;135022.5;Moldova;MDA
Baltimore;39.29999005;-76.61998499;1432946;United States of America;USA
Balykchy;42.4560248;76.18536495;40263.5;Kyrgyzstan;KGZ
Balyqshy;47.06659609;51.86659094;25442;Kazakhstan;KAZ
Bam;29.10769228;58.36195675;99268;Iran;IRN
Bama;11.5203937;13.69000647;86410;Nigeria;NGA
Bamako;12.65001467;-8.000039105;1395640.5;Mali;MLI
Bambari;5.761959655;20.66720333;47322.5;Central African Republic;CAF
Bamenda;5.959983743;10.15001583;419567;Cameroon;CMR
Bamian;34.82106447;67.52103593;61863;Afghanistan;AFG
Ban Houayxay;20.2775;100.4127778;6347;Laos;LAO
Banamba;13.55039899;-7.449995159;18312;Mali;MLI
Banda Aceh;5.549982929;95.32001094;344065.5;Indonesia;IDN
Bandar Lampung;-5.449604066;105.3000219;881801;Indonesia;IDN
Bandar Lampung;-5.430018698;105.2699979;795757;Indonesia;IDN
Bandar Seri Begawan;4.883331115;114.9332841;218250;Brunei;BRN
Bandarbeyla;9.483308735;50.81668087;13753;Somalia;SOM
Bandar-e Bushehr;28.91997764;50.83001339;167218.5;Iran;IRN
Bandar-e-Abbas;27.20405978;56.27213554;414503.5;Iran;IRN
Bandjarmasin;-3.329991843;114.5800756;588206.5;Indonesia;IDN
Bandundu;-3.309993063;17.37996212;107997.5;Congo (Kinshasa);COD
Bandung;-6.950029278;107.5700126;2046859.5;Indonesia;IDN
Banes;20.96291811;-75.71859298;47745.5;Cuba;CUB
Banff;51.17799888;-115.5719227;6897;Canada;CAN
Banfora;10.63044802;-4.760004315;45903.5;Burkina Faso;BFA
Bangalore;12.96999514;77.56000972;5945523.5;India;IND
Bangassou;4.733753681;22.81663285;28601;Central African Republic;CAF
Banghazi;32.11673342;20.06672318;881187;Libya;LBY
Bangkok;13.74999921;100.5166447;5904238;Thailand;THA
Bangor;44.80115297;-68.77834477;40843;United States of America;USA
Bangui;4.366644306;18.55828813;727348;Central African Republic;CAF
Bani;18.279999;-70.33100347;66709;Dominican Republic;DOM
Bani Walid;31.77039797;13.98998816;55871;Libya;LBY
Banja Luka;44.78040489;17.17997432;221422;Bosnia and Herzegovina;BIH
Banjul;13.45387646;-16.59170149;38841.5;The Gambia;GMB
Bannu;32.98897992;70.59857418;586209.5;Pakistan;PAK
Bansang;13.43363609;-14.65002079;4646.5;The Gambia;GMB
Banska Bystrica;48.73329022;19.14998328;80784;Slovakia;SVK
Banyuwangi;-8.195017884;114.3695975;140295;Indonesia;IDN
Baoding;38.87042971;115.4800207;1051326;China;CHN
Baoji;34.38000612;107.1499865;800000;China;CHN
Baoshan;25.11997703;99.15000972;925000;China;CHN
Baotou;40.65220725;109.8220198;1229664.5;China;CHN
Baqubah;33.74764162;44.65726355;226014.5;Iraq;IRQ
Bar Harbor;44.38789654;-68.20437464;4483.5;United States of America;USA
Barabinsk;55.35727867;78.35189937;29888.5;Russia;RUS
Barahona;18.20037355;-71.099986;83644;Dominican Republic;DOM
Baraki Barak;33.9667021;68.96670354;22305;Afghanistan;AFG
Baramula;34.20043052;74.35002478;122631;India;IND
Baranavichy;53.13684572;26.01344031;156514.5;Belarus;BLR
Barbacena;-21.22001097;-43.77000045;101628.5;Brazil;BRA
Barcaldine;-23.56617267;145.2833695;1068;Australia;AUS
Barcelona;41.38329958;2.183370319;3250797.5;Spain;ESP
Barcelona;10.13037518;-64.72001367;361430;Venezuela;VEN
Barcelos;-0.97499347;-62.92389592;9968.5;Brazil;BRA
Barclayville;4.799996997;-8.166698518;2733;Liberia;LBR
Barddhaman;23.25037539;87.86496212;301725;India;IND
Bareilly;28.34538739;79.41999955;781217.5;India;IND
Bari;41.1142204;16.87275793;408554.5;Italy;ITA
Barinas;8.59997764;-70.25001205;261405.5;Venezuela;VEN
Barisal;22.70040895;90.37498979;202242;Bangladesh;BGD
Barlett;35.22290041;-89.84109013;164843.5;United States of America;USA
Barletta;41.31999595;16.27000403;99962;Italy;ITA
Barnaul;53.35499778;83.74500688;569711;Russia;RUS
Barquisimeto;10.04999249;-69.29996668;962745;Venezuela;VEN
Barra do Bugres;-15.06958535;-57.19000818;22386;Brazil;BRA
Barra do Corda;-5.509600404;-45.25996118;48901;Brazil;BRA
Barra do Garcas;-15.87961342;-52.25999903;41214.5;Brazil;BRA
Barra Mansa;-22.56003253;-44.1699502;166719;Brazil;BRA
Barrancabermeja;7.089992288;-73.84999903;177802;Colombia;COL
Barranquilla;10.95998863;-74.79996688;1521245.5;Colombia;COL
Barras;-4.250039043;-42.29998682;11951.5;Brazil;BRA
Barreiras;-12.13999673;-45.00000289;86245.5;Brazil;BRA
Barreiros;-8.829604473;-35.20000676;35472.5;Brazil;BRA
Barretos;-20.55002602;-48.58001693;97562;Brazil;BRA
Barrie;44.38376243;-79.7000037;150886.5;Canada;CAN
Barrow;71.29056968;-156.78858;3412;United States of America;USA
Barstow;34.89901837;-117.0218858;21119;United States of America;USA
Bartica;6.410421365;-58.63002364;11340.5;Guyana;GUY
Bartlesville;36.74720013;-95.98058618;24935;United States of America;USA
Baruun Urt;46.69997764;113.2833073;15805;Mongolia;MNG
Barysaw;54.22600405;28.49215206;127694.5;Belarus;BLR
Basankusu;1.233708922;19.80002112;52216;Congo (Kinshasa);COD
Base Presidente Montalva;-62.18274357;-58.90765233;115;Antarctica;ATA
Basel;47.58038902;7.590017048;500317.5;Switzerland;CHE
Basoko;1.240426858;23.59002234;22953;Congo (Kinshasa);COD
Basra;30.51352378;47.81355668;870000;Iraq;IRQ
Bassar;9.261000068;0.789003574;61845;Togo;TGO
Basse Santa Su;13.31000112;-14.2229965;14380;The Gambia;GMB
Basseterre;17.30203046;-62.71700932;18693.5;Saint Kitts and Nevis;KNA
Basse-terre;16.23039044;-61.43998132;307;France;FRA
Bastia;42.70316734;9.450006875;40558.5;France;FRA
Bata;1.870000833;9.769987344;135943.5;Equatorial Guinea;GNQ
Batagay;67.65598533;134.6350272;4266;Russia;RUS
Batangas;13.78167686;121.021698;330939;Philippines;PHL
Batatais;-20.89000527;-47.58999984;44061;Brazil;BRA
Bataysk;47.13682436;39.74485022;106844.5;Russia;RUS
Batemans Bay;-35.68961871;150.2073067;5604;Australia;AUS
Bath;51.3837486;-2.350022218;92679;United Kingdom;GBR
Bathurst;-33.41962807;149.5700329;6111;Australia;AUS
Bathurst;47.59997438;-65.64998275;5303.5;Canada;CAN
Bati;11.18374758;40.0165649;12826.5;Ethiopia;ETH
Batman;37.89041201;41.14001054;276337.5;Turkey;TUR
Batna;35.56995933;6.170000365;269467;Algeria;DZA
Baton Rouge;30.45794578;-91.14015812;322710.5;United States of America;USA
Batouri;4.433694477;14.366606;42271;Cameroon;CMR
Battambang;13.10001304;103.2000468;152608.5;Cambodia;KHM
Batticaloa;7.717008279;81.70001542;107982;Sri Lanka;LKA
Battle Creek;42.32109764;-85.17974675;62454;United States of America;USA
Batu Pahat;1.850363789;102.9333447;177927.5;Malaysia;MYS
Batumi;41.6000047;41.63000647;138674;Georgia;GEO
Baturite;-4.329569073;-38.87998885;17797.5;Brazil;BRA
Baubau;-5.469861228;122.6163293;24412;Indonesia;IDN
Bauchi;10.3103642;9.84000891;244350.5;Nigeria;NGA
Baures;-13.58001219;-63.58005742;2422;Bolivia;BOL
Bauru;-22.33002073;-49.08001225;307929.5;Brazil;BRA
Bavaro;18.71700869;-68.44996688;795;Dominican Republic;DOM
Bawku;11.06039593;-0.239995973;65212;Ghana;GHA
Bay City;43.5944566;-83.88889531;51558.5;United States of America;USA
Bay City;28.98111086;-95.96435978;17487;United States of America;USA
Bayamo;20.37954287;-76.64329106;177623;Cuba;CUB
Bayan Obo;41.76764305;109.9711063;27476;China;CHN
Bayankhongor;46.30000205;100.9833345;26252;Mongolia;MNG
Baydhabo;3.119976216;43.64998653;128830;Somalia;SOM
Bayghanin;48.69169069;55.87399491;4271;Kazakhstan;KAZ
Baykonur;45.69135703;63.24134884;36175;Kazakhstan;KAZ
Baytown;29.75584393;-94.96772811;76687.5;United States of America;USA
Beaufort;32.43216636;-80.68950403;21941;United States of America;USA
Beaufort West;-32.34961587;22.56998124;28070.5;South Africa;ZAF
Beaumont;30.08626304;-94.10168278;107455.5;United States of America;USA
Beaver Falls;40.75194277;-80.31942326;64814.5;United States of America;USA
Bechar;31.61110537;-2.230003704;142415.5;Algeria;DZA
Beckley;37.78018618;-81.18301396;27358;United States of America;USA
Bedourie;-24.34958738;139.4666186;142;Australia;AUS
Beer Sheva;31.2500163;34.8300081;196504;Israel;ISR
Beeville;28.40597801;-97.75083989;11748;United States of America;USA
Behbehan;30.58181419;50.26146928;82517;Iran;IRN
Beian;48.23900515;126.4820365;154936;China;CHN
Beihai;21.4804059;109.1000484;567289;China;CHN
Beijing;39.92889223;116.3882857;9293300.5;China;CHN
Beipiao;41.81001772;120.7600085;191757;China;CHN
Beira;-19.82004474;34.87000565;507196.5;Mozambique;MOZ
Beirut;33.87197512;35.50970821;1779062.5;Lebanon;LBN
Beitbridge;-22.20961465;29.98999345;13759.5;Zimbabwe;ZWE
Beja;38.01400214;-7.86300241;28756;Portugal;PRT
Beja;36.73040529;9.190022744;58400;Tunisia;TUN
Bejaia;36.76037762;5.070015827;274520;Algeria;DZA
Bekasi;-6.217257468;106.972323;1949165;Indonesia;IDN
Bekescsaba;46.67200211;21.10100457;65206;Hungary;HUN
Bekiy;-24.21615884;45.31660315;4286;Madagascar;MDG
Belabo;4.933689798;13.30000443;11455.5;Cameroon;CMR
Belaya Kalitva;48.18650189;40.78613033;47809.5;Russia;RUS
Belebey;54.12913658;54.11870154;57674.5;Russia;RUS
Beledweyne;4.739980691;45.20002112;59177.5;Somalia;SOM
Belem;-1.450003236;-48.48002303;1787368.5;Brazil;BRA
Belen;-27.64959267;-67.03328333;11359;Argentina;ARG
Belen;-23.46948606;-57.23997929;6490;Paraguay;PRY
Belfast;54.60001223;-5.960034425;362588;United Kingdom;GBR
Belgaum;15.86501223;74.5050024;609472.5;India;IND
Belgorod;50.62999615;36.5999259;328004.5;Russia;RUS
Belgrade;44.81864545;20.46799068;1099000;Serbia;SRB
Belgrano Station;-77.86632078;-34.61668319;57;Antarctica;ATA
Belize City;17.49871096;-88.18837447;62244.5;Belize;BLZ
Bell Ville;-32.60003986;-62.67995732;29605;Argentina;ARG
Bella Bella;52.14840476;-128.1172809;1400;Canada;CAN
Bella Union;-30.25961424;-57.59995732;17947;Uruguay;URY
Bella Vista;-22.12961953;-56.5199974;11252.5;Paraguay;PRY
Bellary;15.15004295;76.91503617;391034.5;India;IND
Belleville;44.16666974;-77.38334924;43990;Canada;CAN
Belleville;38.52515362;-90.0002277;92409.5;United States of America;USA
Bellingham;48.76013613;-122.4869269;86565.5;United States of America;USA
Bellinzona;46.19700013;9.019998609;16572;Switzerland;CHE
Bello;6.329986998;-75.5699974;456304.5;Colombia;COL
Belmopan;17.25203351;-88.767073;14300.5;Belize;BLZ
Belo Horizonte;-19.91502602;-43.91500452;3974112;Brazil;BRA
Belogorsk;50.91909995;128.4637243;69057;Russia;RUS
Belomorsk;64.52522036;34.76582597;12165;Russia;RUS
Bemidji;47.47357383;-94.88018823;14063.5;United States of America;USA
Ben Gardane;33.14039187;11.22002803;16603.5;Tunisia;TUN
Bend;44.071921;-121.3099962;70598.5;United States of America;USA
Bendigo;-36.75999266;144.2800199;68790;Australia;AUS
Benevento;41.13370241;14.74999345;59280;Italy;ITA
Bengbu;32.94999005;117.330037;735324;China;CHN
Bengkulu;-3.800040671;102.2699743;368192.5;Indonesia;IDN
Benguela;-12.57826455;13.40723303;142017;Angola;AGO
Benha;30.46666512;31.18333563;167029;Egypt;EGY
Beni;0.490446797;29.45002641;211275.5;Congo (Kinshasa);COD
Beni Mazar;28.49039146;30.80999508;68853;Egypt;EGY
Beni Ounif;32.04926984;-1.251381268;5628;Algeria;DZA
Beni Suef;29.08038129;31.09002966;339537;Egypt;EGY
Benin City;6.340477314;5.620008096;929013;Nigeria;NGA
Benoni;-26.14958087;28.32993974;1795672;South Africa;ZAF
Bensonville;6.433299035;-10.60000152;4089;Liberia;LBR
Bentiu;9.2333333;29.8333333;7653;South Sudan;SSD
Bento Goncalves;-29.1694999;-51.51996668;92561.5;Brazil;BRA
Benton Harbor;42.11663983;-86.45419092;34637.5;United States of America;USA
Benxi;41.33038291;123.7500069;923933;China;CHN
Berat;40.70999705;19.97199958;46866;Albania;ALB
Berber;18.01702557;33.98328975;35975.5;Sudan;SDN
Berbera;10.43555035;45.01641475;178407;Somaliland;SOL
Berberati;4.249958922;15.7800081;60605;Central African Republic;CAF
Berdyansk;46.75682172;36.78683956;88409;Ukraine;UKR
Berekum;7.450383727;-2.59000757;36484.5;Ghana;GHA
Berenice;23.94599184;35.48418005;10;Egypt;EGY
Berens River;52.36655682;-97.03331262;522.5;Canada;CAN
Berezniki;59.42000226;56.75998734;153305;Russia;RUS
Bergamo;45.70040041;9.669993448;160658;Italy;ITA
Bergen;60.39100242;5.324522256;200389.5;Norway;NOR
Beringovskiy;63.0654645;179.3066674;1861;Russia;RUS
Berkeley;37.87390139;-122.271152;298257;United States of America;USA
Berlin;52.52181866;13.40154862;3250007;Germany;DEU
Bermejo;-22.72958291;-64.34998458;36544;Bolivia;BOL
Bern;46.91668276;7.466975462;198480;Switzerland;CHE
Berri;-34.28293455;140.6000378;4523;Australia;AUS
Bertoua;4.580429707;13.67998124;153286.5;Cameroon;CMR
Besalampy;-16.74953449;44.48332068;1022;Madagascar;MDG
Besancon;47.22999697;6.03000891;124193;France;FRA
Bestobe;52.49967531;73.0997135;7189;Kazakhstan;KAZ
Betanzos;-19.55995726;-65.45002079;4629.5;Bolivia;BOL
Bethal;-26.46961302;29.45002641;96184.5;South Africa;ZAF
Bethanie;-26.49953367;17.15000199;8122;Namibia;NAM
Bethel;60.79330345;-161.7557961;5440.5;United States of America;USA
Bethlehem;-28.21958372;28.29996741;66373;South Africa;ZAF
Beyla;8.686997987;-8.657000454;13204;Guinea;GIN
Beyneu;45.18335187;55.10003699;32452;Kazakhstan;KAZ
Bezhetsk;57.76472862;36.68999792;31425;Russia;RUS
Beziers;43.35049217;3.209974323;77759.5;France;FRA
Bhagalpur;25.22999615;86.98000321;361548;India;IND
Bhairawa;27.53330409;83.38329953;63367;Nepal;NPL
Bharatpur;27.25036379;77.50001339;229384;India;IND
Bhatpara;22.85042564;88.52001257;483129;India;IND
Bhavnagar;21.77842389;72.12995357;509790;India;IND
Bhilai;21.2166667;81.4333333;1097000;India;IND
Bhilwara;25.35042808;74.6350203;358171;India;IND
Bhimphedi;27.5509981;85.13000156;15000;Nepal;NPL
Bhisho;-32.86999754;27.38999711;149142;South Africa;ZAF
Bhiwandi;19.35001914;73.12999589;751017.5;India;IND
Bhiwani;28.81001019;76.12500688;190855;India;IND
Bhopal;23.24998781;77.40999304;1663457;India;IND
Bhubaneshwar;20.27042808;85.82736039;803121.5;India;IND
Bhuj;23.25037539;69.80999182;289429;India;IND
Bhusawal;21.01999473;75.8300378;177683.5;India;IND
Biak;-1.161493715;136.048481;103610;Indonesia;IDN
Bialystok;53.15035911;23.1699963;288722.5;Poland;POL
Biarritz;43.47327537;-1.561594891;89268;France;FRA
Bicheno;-41.87838825;148.2886124;177;Australia;AUS
Bida;9.080413431;6.01001013;172752.5;Nigeria;NGA
Bidar;17.92292279;77.5175317;252103.5;India;IND
Biel;47.16658999;7.2500378;63661;Switzerland;CHE
Bielefeld;52.02998822;8.530011351;311739.5;Germany;DEU
Bien Hoa;10.97001385;106.8300577;652646;Vietnam;VNM
Bifoum;-0.332913799;10.38323157;134;Gabon;GAB
Big Beaver House;52.94998374;-89.88328394;10;Canada;CAN
Big Delta;64.15252993;-145.8421939;591;United States of America;USA
Big Spring;32.24318565;-101.4751862;23987;United States of America;USA
Biggar;52.05040041;-107.9832902;2130;Canada;CAN
Biharamulo;-2.629621156;31.31001623;21817.5;Tanzania;TZA
Bijapur;16.83541811;75.70999345;270967;India;IND
Bijar;35.87407513;47.59367346;48806;Iran;IRN
Bikaner;28.0303937;73.32993201;485961.5;India;IND
Bikin;46.82025454;134.2649206;19264.5;Russia;RUS
Bila Tserkva;49.77431195;30.13091508;192418.5;Ukraine;UKR
Bilaspur;22.09042035;82.15998734;436780;India;IND
Bilbao;43.24998151;-2.929986818;614369.5;Spain;ESP
Bilecik;40.14999902;29.9829966;40285;Turkey;TUR
Bilibino;68.0504057;166.3332991;5757;Russia;RUS
Billings;45.78830202;-108.5400004;102151.5;United States of America;USA
Biloela;-24.39356403;150.4960746;4366.5;Australia;AUS
Biloxi;30.39580487;-88.88530868;43857;United States of America;USA
Biltine;14.53325889;20.91669714;6682.5;Chad;TCD
Binga;2.383406188;20.41998328;64639;Congo (Kinshasa);COD
Binghamton;42.09901817;-75.91832239;92687.5;United States of America;USA
Bingol;38.88500404;40.49800256;80568;Turkey;TUR
Binjai;3.620359109;98.50007524;405494.5;Indonesia;IDN
Bintulu;3.16640749;113.0359838;117643.5;Malaysia;MYS
Bir Anzarane;23.88374758;-14.53330957;6597;Morocco;MAR
Bir Lehlou;26.11916669;-9.652522218;350;Western Sahara;SAH
Bir Mogrein;25.23330345;-11.58330876;10;Mauritania;MRT
Birak;27.53331809;14.28335526;42432.5;Libya;LBY
Birao;10.28369916;22.78330155;5641;Central African Republic;CAF
Biratnagar;26.48374392;87.28334387;182324;Nepal;NPL
Birdsville;-25.89962197;139.3666247;283;Australia;AUS
Birganj;27.00040489;84.86659216;133238;Nepal;NPL
Birjand;32.88002016;59.21994055;260842.5;Iran;IRN
Birmingham;52.47497398;-1.919996787;1634666.5;United Kingdom;GBR
Birmingham;33.53000633;-86.82499516;670142;United States of America;USA
Birni Nkonni;13.79043601;5.259926716;56677.5;Niger;NER
Birnin Kebbi;12.45041445;4.199939737;102340.5;Nigeria;NGA
Birobidzhan;48.79742067;132.9507889;75022.5;Russia;RUS
Birsk;55.42438051;55.54435095;33903;Russia;RUS
Biryusinsk;55.96065269;97.81443233;8199.5;Russia;RUS
Bishkek;42.87307945;74.58520422;820606;Kyrgyzstan;KGZ
Bishop;37.36395835;-118.394076;4249;United States of America;USA
Biskra;34.85997683;5.73002722;202103;Algeria;DZA
Bismarck;46.80831728;-100.7833163;60288.5;United States of America;USA
Bissau;11.86502382;-15.59836084;395683.5;Guinea Bissau;GNB
Bistrita;47.13800409;24.51300358;81318;Romania;ROU
Bitam;2.083657042;11.48337113;13967;Gabon;GAB
Bitlis;38.39400012;42.12299765;52960;Turkey;TUR
Bitola;41.03905703;21.33951371;75551;Macedonia;MKD
Biu;10.62042279;12.18999467;64619.5;Nigeria;NGA
Biysk;52.53406598;85.18000972;209796.5;Russia;RUS
Bizerte;37.29042279;9.854995075;127555.5;Tunisia;TUN
Black River;18.03099607;-77.85199748;4229;Jamaica;JAM
Blackpool;53.83039512;-3.050005332;207946.5;United Kingdom;GBR
Blacksburg;37.22941876;-80.41419784;53845.5;United States of America;USA
Blagodarnyy;45.10472618;43.43439245;28070.5;Russia;RUS
Blagoveshchensk;50.26660748;127.5333418;206711;Russia;RUS
Blantyre;-15.79000649;34.98994665;584877;Malawi;MWI
Blenheim;-41.52099404;173.9592419;23056.5;New Zealand;NZL
Blida;36.4203467;2.829997517;388174;Algeria;DZA
Blitar;-8.069599183;112.1499914;132416;Indonesia;IDN
Bloemfontein;-29.11999388;26.22991288;459866.5;South Africa;ZAF
Bloemhof;-27.64959267;25.59000362;10662.5;South Africa;ZAF
Bloomington;40.48459475;-88.99359664;99842.5;United States of America;USA
Bloomington;39.16565716;-86.52640873;85781.5;United States of America;USA
Bluefields;11.99997683;-83.76494938;40033;Nicaragua;NIC
Blumenau;-26.9200248;-49.0899858;286326;Brazil;BRA
Bo;7.970016092;-11.74001754;170690.5;Sierra Leone;SLE
Boa Vista;2.816092955;-60.66599756;202299.5;Brazil;BRA
Boaco;12.46997398;-85.66000167;21572;Nicaragua;NIC
Bobo Dioulasso;11.1799752;-4.289981325;346035;Burkina Faso;BFA
Bocaiuva;-17.10961587;-43.81004968;22528.5;Brazil;BRA
Bocas del Toro;9.335350084;-82.2474707;6484;Panama;PAN
Bod;67.24677227;14.39901132;31383.5;Norway;NOR
Bodaybo;57.96497479;114.3289799;15933;Russia;RUS
Boende;-0.219587383;20.8600081;24679.5;Congo (Kinshasa);COD
Boffa;10.18500307;-14.04299645;2332;Guinea;GIN
Bogande;12.96900003;-0.1379965;9854;Burkina Faso;BFA
Bogor;-6.570000795;106.7500109;859000;Indonesia;IDN
Bogoroditsk;53.77468793;38.11435543;34884.5;Russia;RUS
Bogota;4.596423563;-74.08334396;7052830.5;Colombia;COL
Bogotol;56.21647687;89.51840124;22559.5;Russia;RUS
Bogue;16.59039431;-14.26996647;10415;Mauritania;MRT
Boise;43.60859011;-116.2274899;242029;United States of America;USA
Bojnurd;37.46999839;57.32000484;200311.5;Iran;IRN
Boke;10.93998985;-14.29999048;116270;Guinea;GIN
Bol;13.45895754;14.71469844;3303;Chad;TCD
Bolama;11.58295303;-15.48280399;9179;Guinea Bissau;GNB
Bolgatanga;10.79038658;-0.84998458;68303.5;Ghana;GHA
Boli;45.75636599;130.5759468;83317;China;CHN
Bollns;61.35200319;16.36658728;12771.5;Sweden;SWE
Bolobo;-2.159520651;16.23998002;22605.5;Congo (Kinshasa);COD
Bologna;44.50042198;11.34002071;429694.5;Italy;ITA
Bologoye;57.87216392;34.05176103;21785;Russia;RUS
Bol'sheretsk;52.43898134;156.3593859;10;Russia;RUS
Bolu;40.73625897;31.60612219;96489;Turkey;TUR
Bolzano;46.5004291;11.36001949;95442;Italy;ITA
Bom Jesus da Lapa;-13.2495414;-43.44002059;40691;Brazil;BRA
Boma;-5.829994284;13.04999385;178638;Congo (Kinshasa);COD
Bombo;0.583299106;32.53329952;48000;Uganda;UGA
Bonao;18.94200314;-70.40899757;73269;Dominican Republic;DOM
Bondo;3.809959939;23.67001745;20688.5;Congo (Kinshasa);COD
Bondoukou;8.030425841;-2.800020591;38501.5;Ivory Coast;CIV
Bongandanga;1.510358703;21.05002234;2896;Congo (Kinshasa);COD
Bongaree;-27.07872313;153.1508996;10327.5;Australia;AUS
Bongor;10.28594708;15.38716386;112229.5;Chad;TCD
Bonn;50.72045575;7.080022337;496834;Germany;DEU
Bontang;0.133259297;117.5000008;101691;Indonesia;IDN
Boorama;9.940412617;43.18004106;67664;Somaliland;SOL
Boosaaso;11.28002077;49.1799849;46969;Somalia;SOM
Bor;6.207203795;31.55914831;26782;South Sudan;SSD
Bors;57.7304413;12.91997595;64115.5;Sweden;SWE
Boralday;43.33413658;76.82883988;20996;Kazakhstan;KAZ
Bordeaux;44.85001304;-0.595013063;517422;France;FRA
Bordertown;-36.31619546;140.7666426;1976;Australia;AUS
Bordj Bou Arreridj;36.05900401;4.629996466;134500;Algeria;DZA
Borgarnes;64.56950277;-21.86232219;1783;Iceland;ISL
Borisoglebsk;51.36871075;42.08873816;64995;Russia;RUS
Borlnge;60.48332237;15.4166711;38974.5;Sweden;SWE
Borovichi;58.39781659;33.89740352;57229;Russia;RUS
Borujerd;33.91995668;48.8000081;251958;Iran;IRN
Borzya;50.38856386;116.518562;29653;Russia;RUS
Bose;23.8997156;106.6133268;132942.5;China;CHN
Bosobolo;4.190375996;19.88001623;8968.5;Congo (Kinshasa);COD
Bossangoa;6.483724384;17.44998368;45246;Central African Republic;CAF
Bossembele;5.267002786;17.65002315;7287;Central African Republic;CAF
Boston;42.32996014;-71.07001367;2528070.5;United States of America;USA
Botosani;47.74841494;26.65965409;113359;Romania;ROU
Botucatu;-22.87959959;-48.44999903;94938.5;Brazil;BRA
Bouafle;6.977997104;-5.748002428;60962;Ivory Coast;CIV
Bouake;7.689981505;-5.030013673;511151;Ivory Coast;CIV
Bouar;5.950010192;15.59996741;31476.5;Central African Republic;CAF
Bougouni;11.42042564;-7.48996688;30547;Mali;MLI
Bouira;36.38047833;3.900009724;110144;Algeria;DZA
Boulder;40.03844627;-105.246093;106897.5;United States of America;USA
Boulder City;35.97895245;-114.8315802;15072.5;United States of America;USA
Boulia;-22.89959837;139.9000288;402.5;Australia;AUS
Boulsa;12.65699714;-0.568997532;17489;Burkina Faso;BFA
Bourem;16.90037539;-0.349989259;28743;Mali;MLI
Bourges;47.08372683;2.399997923;70163.5;France;FRA
Bourke;-30.1;145.9333333;2475;Australia;AUS
Bournemouth;50.72999005;-1.900049684;295272.5;United Kingdom;GBR
Boutilimit;17.55038739;-14.70004358;14142;Mauritania;MRT
Bowen;-20.00132566;148.208669;10983;Australia;AUS
Bowling Green;41.37474713;-83.65139042;33147.5;United States of America;USA
Bowling Green;36.99069948;-86.44364893;61349;United States of America;USA
Boyarka;70.76698407;97.50003292;35968;Russia;RUS
Bozeman;45.68009157;-111.0378325;39049.5;United States of America;USA
Bozoum;6.316990376;16.38333044;25440.5;Central African Republic;CAF
Bradford;53.80003522;-1.749981325;397708.5;United Kingdom;GBR
Braga;41.55499453;-8.421331219;504326;Portugal;PRT
Braganca;-1.05002765;-46.76999821;56864.5;Brazil;BRA
Braganca;41.80799701;-6.755003426;34375;Portugal;PRT
Braganca Paulista;-22.95003457;-46.5499858;126386;Brazil;BRA
Brahmapur;19.31999514;84.79998124;324726;India;IND
Braila;45.29199615;27.96900354;213569;Romania;ROU
Brainerd;46.35800885;-94.20084986;21202.5;United States of America;USA
Brandfort;-28.69955442;26.47000159;6190;South Africa;ZAF
Brandon;49.83327476;-99.94998214;27326;Canada;CAN
Brasilia;-15.78334023;-47.91605229;3139979.5;Brazil;BRA
Brasov;45.64753542;25.6071602;293566;Romania;ROU
Bratislava;48.15001833;17.11698075;398712;Slovakia;SVK
Bratsk;56.15699729;101.6150272;133905;Russia;RUS
Braunschweig;52.24997479;10.5000203;239884.5;Germany;DEU
Brazzaville;-4.259185772;15.28468949;1259445;Congo (Brazzaville);COG
Bredasdorp;-34.52953449;20.02998124;8453;South Africa;ZAF
Bregenz;47.51669707;9.766701588;26928;Austria;AUT
Bremen;53.08000165;8.80002071;635705;Germany;DEU
Bremerhaven;53.55043805;8.579982461;127598.5;Germany;DEU
Bremerton;47.57359552;-122.6420175;82039.5;United States of America;USA
Brest;52.09998395;23.69998979;266775;Belarus;BLR
Brest;48.39044293;-4.49500757;142914;France;FRA
Breves;-1.680015036;-50.4900037;46818.5;Brazil;BRA
Bria;6.533307921;21.9832987;24985.5;Central African Republic;CAF
Bridgeport;41.17997866;-73.19996118;578545;United States of America;USA
Bridgetown;13.10200258;-59.61652674;143865;Barbados;BRB
Brighton;50.83034568;-0.169974407;321004.5;United Kingdom;GBR
Brikama;13.28036379;-16.65994979;136418;The Gambia;GMB
Brindisi;40.64034751;17.93000606;96759;Italy;ITA
Brisbane;-27.45503091;153.0350927;1393176.5;Australia;AUS
Bristol;51.44999778;-2.583315472;492120.5;United Kingdom;GBR
Bristol;36.61152366;-82.17600244;31276.5;United States of America;USA
Brits;-25.62961261;27.77999914;81222;South Africa;ZAF
Brive;45.15040814;1.533332477;54457;France;FRA
Brno;49.20039349;16.60998328;378918;Czech Republic;CZE
Brochet;57.88322268;-101.6665957;278;Canada;CAN
Brockville;44.5892796;-75.69531275;25172;Canada;CAN
Broken Hill;-31.94995034;141.4331136;17232.5;Australia;AUS
Brokopondo;5.040375792;-55.02001144;6170;Suriname;SUR
Brookings;44.30676455;-96.78803044;20313.5;United States of America;USA
Brooks;50.56705426;-111.9000021;13453.5;Canada;CAN
Broome;-17.96177069;122.2307681;11890.5;Australia;AUS
Brovary;50.49431968;30.78090124;77355.5;Ukraine;UKR
Brownsville;25.91997988;-97.50000248;174707;United States of America;USA
Brownsweg;5.020015278;-55.1699506;3639;Suriname;SUR
Brownwood;31.70789532;-98.98231511;20261;United States of America;USA
Brugge;51.22037355;3.230024779;131589;Belgium;BEL
Brumado;-14.20999957;-41.67002527;29300;Brazil;BRA
Brunswick;31.1496865;-81.49165145;31785.5;United States of America;USA
Brus Laguna;15.75041974;-84.47999618;4067;Honduras;HND
Brusque;-27.12998615;-48.9300214;81163.5;Brazil;BRA
Brussels;50.83331708;4.333316608;1381011;Belgium;BEL
Bryan;30.67418581;-96.36968388;108156.5;United States of America;USA
Bryansk;53.25999066;34.42998083;426510;Russia;RUS
Bua Yai;15.58402163;102.4185957;17550.5;Thailand;THA
Bu'aale;1.083303017;42.58330253;1490;Somalia;SOM
Bubanza;-3.083300984;29.36670351;12728;Burundi;BDI
Bucaramanga;7.1300932;-73.12588302;790410;Colombia;COL
Buchanan;5.916084614;-10.05247197;37023;Liberia;LBR
Buchans;48.81703188;-56.86659123;685;Canada;CAN
Bucharest;44.4333718;26.09994665;1842097;Romania;ROU
Budapest;47.50000633;19.08332068;1679000;Hungary;HUN
Budaun;28.03000612;79.08999385;161555;India;IND
Buea;4.155003087;9.231003513;90088;Cameroon;CMR
Buenaventura;3.872402425;-77.05045329;246596;Colombia;COL
Buenos Aires;-34.60250161;-58.39753137;11862073;Argentina;ARG
Buffalo;42.87997825;-78.88000208;647778.5;United States of America;USA
Bugrino;68.80787884;49.30416337;300;Russia;RUS
Bugt;48.78380393;121.9333736;17457;China;CHN
Bugulma;54.55433026;52.79428625;85384;Russia;RUS
Buguruslan;53.66301516;52.43301632;51877;Russia;RUS
Buizhou;37.37039207;118.0200207;115893;China;CHN
Bujumbura;-3.37608722;29.36000606;331700;Burundi;BDI
Bukachacha;52.98334088;116.9166255;1934.5;Russia;RUS
Bukama;-9.20958128;25.8400142;20900.5;Congo (Kinshasa);COD
Bukavu;-2.509990215;28.8400378;331084;Congo (Kinshasa);COD
Bukhara;39.78001243;64.43001013;283560;Uzbekistan;UZB
Bukittinggi;-0.303148174;100.3614603;302855;Indonesia;IDN
Bukoba;-1.319623597;31.79996049;85566;Tanzania;TZA
Bulaevo;54.90531659;70.43997921;5383;Kazakhstan;KAZ
Bulandshahr;28.4103705;77.84841589;198612;India;IND
Bulawayo;-20.16999754;28.58000199;697096;Zimbabwe;ZWE
Bulgan;48.81059816;103.5317061;17348;Mongolia;MNG
Bullhead City;35.14817629;-114.5674878;37989;United States of America;USA
Buluko;-0.756998889;28.52800254;1192;Congo (Kinshasa);COD
Bulungu;-4.549607321;18.59999101;42310.5;Congo (Kinshasa);COD
Bumba;2.189981302;22.45996212;128029.5;Congo (Kinshasa);COD
Bunbury;-33.34428384;115.6502429;26683.5;Australia;AUS
Bundaberg;-24.87906411;152.3508968;46062;Australia;AUS
Bungoma;0.570390237;34.55999874;55962;Kenya;KEN
Bunia;1.560407327;30.24000403;61537;Congo (Kinshasa);COD
Buon Me Thuot;12.66704205;108.0499833;248460;Vietnam;VNM
Bur Safaga;26.73372866;33.93331864;21035.5;Egypt;EGY
Bur Said;31.25998985;32.2900081;561932;Egypt;EGY
Buraydah;26.36638674;43.96283565;394958.5;Saudi Arabia;SAU
Burco;9.520386575;45.54000037;102931.5;Somaliland;SOL
Burdur;37.71666011;30.28333554;66158;Turkey;TUR
Burgas;42.51460004;27.47464311;174254;Bulgaria;BGR
Burgos;42.35039817;-3.67996688;150251;Spain;ESP
Burhanpur;21.30039105;76.13001949;197233;India;IND
Buriram;15.00043968;103.116641;47292;Thailand;THA
Burketown;-17.71609048;139.5666125;186.5;Australia;AUS
Burley;42.53581321;-113.7918763;11644.5;United States of America;USA
Burlington;40.80793418;-91.11276961;27690.5;United States of America;USA
Burlington;44.47579816;-73.21246688;66204;United States of America;USA
Burnie;-41.06660317;145.9166642;18490.5;Australia;AUS
Burns Lake;54.21701235;-125.7665975;2633;Canada;CAN
Burrel;41.62599908;20.01600053;15405;Albania;ALB
Bursa;40.1999868;29.06999792;1425544.5;Turkey;TUR
Bururi;-3.950729147;29.61657955;20066.5;Burundi;BDI
Burwash Landing;61.35037539;-139.0000017;73;Canada;CAN
Burylbaytal;44.93874147;74.03025102;92.5;Kazakhstan;KAZ
Busan;35.09505292;129.0100476;3480000;South Korea;KOR
Busia;0.4544444;34.0758333;47100;Uganda;UGA
Businga;3.340376199;20.86998165;31583;Congo (Kinshasa);COD
Busselton;-33.65640949;115.3486592;9595;Australia;AUS
Buta;2.819994526;24.74002966;44195;Congo (Kinshasa);COD
Butare;-2.589623597;29.73000932;77000;Rwanda;RWA
Butembo;0.130003681;29.28001094;220512;Congo (Kinshasa);COD
Butha-Buthe;-28.74999591;28.25000158;16330;Lesotho;LSO
Butte;46.0038961;-112.5338394;31478;United States of America;USA
Butterworth;5.417071146;100.4000109;464621.5;Malaysia;MYS
Butuan;8.949542866;125.5435925;190557;Philippines;PHL
Buur Gaabo;-1.200869868;41.85195979;3096;Somalia;SOM
Buurhakaba;2.783717671;44.08329342;29529.5;Somalia;SOM
Buy;58.48468467;41.52437984;25781.5;Russia;RUS
Buyant-Uhaa;44.86660118;110.1500101;8776;Mongolia;MNG
Buynaksk;42.8334953;47.11303096;75800;Russia;RUS
Buzau;45.15650596;26.80651851;130826;Romania;ROU
Buzmeyin;38.05166831;58.21002803;40147;Turkmenistan;TKM
Buzuluk;52.78211285;52.26176062;84762;Russia;RUS
Bydgoszcz;53.12041262;18.01000118;366222;Poland;POL
Byron Bay;-28.65650796;153.6128869;5244.5;Australia;AUS
Bytom;50.35003908;18.90999792;425716.5;Poland;POL
Byumba;-1.579556052;30.06001501;70593;Rwanda;RWA
Ca Mau;9.177358418;105.1500052;280765.5;Vietnam;VNM
Cceres;-16.0500423;-57.51001449;85274;Brazil;BRA
Crdoba;-31.39995807;-64.18229456;1374467.5;Argentina;ARG
Caacupe;-25.38700191;-57.14000047;21696;Paraguay;PRY
Caazapa;-26.20001707;-56.38000594;5504;Paraguay;PRY
Caballococha;-3.916260967;-70.50834253;3195;Peru;PER
Cabanatuan;15.50208864;120.9617016;220250;Philippines;PHL
Cabimas;10.42999514;-71.44999048;320956;Venezuela;VEN
Cabinda;-5.55962319;12.18999467;78905.5;Angola;AGO
Cabo de Santo Agostinho;-8.289999167;-35.02999129;144662;Brazil;BRA
Cabo Frio;-22.88998655;-42.03997685;184980;Brazil;BRA
Cabo San Lucas;22.89275617;-109.9045164;39492.5;Mexico;MEX
Caboolture;-27.08296059;152.9499816;26495.5;Australia;AUS
Caborca;30.71614707;-112.1642495;55126.5;Mexico;MEX
Cacador;-26.77000812;-51.02002303;57155.5;Brazil;BRA
Cacheu;12.26899803;-16.16499854;10490;Guinea Bissau;GNB
Cachoeira do Sul;-30.02996417;-52.90998519;61871;Brazil;BRA
Cachoeiro de Itapemirim;-20.85000771;-41.12998071;174808.5;Brazil;BRA
Cacolo;-10.14962726;19.2600024;984;Angola;AGO
Cadillac;44.25121238;-85.41360844;12177.5;United States of America;USA
Cadiz;10.95874839;123.3085868;206105;Philippines;PHL
Cadiz;36.53499086;-6.225005332;153932.5;Spain;ESP
Caen;49.18375368;-0.349989259;150361.5;France;FRA
Cafayate;-26.08291828;-65.96660425;9478;Argentina;ARG
Cagayan de Oro;8.450839456;124.6852986;861824.5;Philippines;PHL
Cagliari;39.22239789;9.103981485;227880;Italy;ITA
Cahul;45.90788129;28.19444413;48949.5;Moldova;MDA
Caibarien;22.5157949;-79.47223983;25431;Cuba;CUB
Caico;-6.459619935;-37.10001998;42378;Brazil;BRA
Cairns;-16.88783986;145.7633309;132107;Australia;AUS
Cairo;30.04996035;31.24996822;9813807;Egypt;EGY
Cajabamba;-7.619600811;-78.04000167;12036.5;Peru;PER
Cajamarca;-7.150017071;-78.53002344;138832.5;Peru;PER
Calabar;4.960406513;8.330023558;354656.5;Nigeria;NGA
Calabozo;8.930396748;-67.43997685;110907;Venezuela;VEN
Calais;50.95041587;1.833314167;83317;France;FRA
Calais;45.16598859;-67.24239201;1781.5;United States of America;USA
Calama;-22.45001341;-68.91998987;134336.5;Chile;CHL
Calarasi;44.20627972;27.32591833;71195.5;Romania;ROU
Calatrava;1.116403421;9.418587604;628;Equatorial Guinea;GNQ
Calbayog;12.06718203;124.6041666;55015;Philippines;PHL
Calbuco;-41.75220107;-73.14159106;6933.5;Chile;CHL
Caldera;-27.06962807;-70.83002832;10259;Chile;CHL
Caldwell;43.66096417;-116.6705378;83403;United States of America;USA
Calgary;51.08299176;-114.0799982;1012661;Canada;CAN
Cali;3.399959126;-76.49996647;2216418;Colombia;COL
Callao;-12.07002684;-77.13496647;786231.5;Peru;PER
Caloundra;-26.80003213;153.1333296;33737;Australia;AUS
Calucinga;-11.31958169;16.19998246;531;Angola;AGO
Calulo;-9.999610577;14.90001013;795;Angola;AGO
Caluula;11.96695559;50.75001827;513;Somalia;SOM
Cam Pha;21.04043276;107.320002;75925.5;Vietnam;VNM
Cam Ranh;11.90202415;109.2206612;85327;Vietnam;VNM
Camabatela;-8.189591859;15.37000728;12731;Angola;AGO
Camacupa;-12.01959064;17.46998246;19489;Angola;AGO
Camaguey;21.38082542;-77.91693425;321583.5;Cuba;CUB
Camana;-16.61961994;-72.71999048;18695;Peru;PER
Camaqua;-30.83963051;-51.81000065;45112.5;Brazil;BRA
Camargo;-20.63958128;-65.20998377;4715;Bolivia;BOL
Cambridge;52.20039125;0.116623086;128488;United Kingdom;GBR
Cambridge Bay;69.11695559;-105.0333153;1477;Canada;CAN
Cameta;-2.239619121;-49.509986;22705;Brazil;BRA
Camiri;-20.05000486;-63.51998356;19212.5;Bolivia;BOL
Camocim;-2.89999225;-40.85002364;27794.5;Brazil;BRA
Camooweal;-19.91673134;138.1166752;187;Australia;AUS
Camp Sobral;-81.17908472;-40.50153152;20;Antarctica;ATA
Campana;-34.15999632;-58.95997766;77149.5;Argentina;ARG
Campbell River;50.01708783;-125.2499882;29941.5;Canada;CAN
Campeche;19.82998985;-90.49999048;204048.5;Mexico;MEX
Campina Grande;-7.230012188;-35.88001693;383098.5;Brazil;BRA
Campinas;-22.90001178;-47.10002975;1911277;Brazil;BRA
Campo Belo;-20.88959186;-45.2799858;42042.5;Brazil;BRA
Campo Grande;-20.45003213;-54.61662521;687723;Brazil;BRA
Campo Maior;-4.820030091;-42.18001998;24089.5;Brazil;BRA
Campo Murao;-24.04960569;-52.41998926;74173;Brazil;BRA
Campoalegre;2.690002461;-75.33001205;17058.5;Colombia;COL
Campobasso;41.56299912;14.65599656;50762;Italy;ITA
Campos;-21.74995278;-41.32002079;378943;Brazil;BRA
Camrose;53.01669802;-112.8166386;15747;Canada;CAN
Can Tho;10.04999249;105.7700191;690299;Vietnam;VNM
Canakkale;40.14593325;26.4063879;74667;Turkey;TUR
Cananea;30.99041974;-110.3000481;28625.5;Mexico;MEX
Canas;10.42999514;-85.10001001;15365;Costa Rica;CRI
Canatlan;24.51998781;-104.7799974;7806.5;Mexico;MEX
Canavieiras;-15.64004148;-38.96000981;26375;Brazil;BRA
Canberra;-35.28302855;149.1290262;280866;Australia;AUS
Cancun;21.16995974;-86.83000777;489452.5;Mexico;MEX
Canela;-29.36003091;-50.81001001;47167;Brazil;BRA
Canelones;-34.53800401;-56.28400149;19698;Uruguay;URY
Cangamba;-13.69959145;19.86001745;1307;Angola;AGO
Cangzhou;38.32038576;116.8700134;527681;China;CHN
Caninde;-4.35003294;-39.30998845;32085;Brazil;BRA
Cankiri;40.60700101;33.62100359;71379;Turkey;TUR
Cankuzo;-3.166703921;30.51669662;6585;Burundi;BDI
Canoas;-29.91999673;-51.17998743;466661;Brazil;BRA
Canoinhas;-26.17996662;-50.4000092;40180;Brazil;BRA
Canton;40.79886497;-81.37863509;168410;United States of America;USA
Cantwell;63.39159446;-148.9507896;222;United States of America;USA
Cao Bang;22.66399806;106.2680046;41112;Vietnam;VNM
Cao Lanh;10.46700013;105.6359976;149837;Vietnam;VNM
Capanema;-1.190019105;-47.17999903;45831;Brazil;BRA
Cap-Chat;49.09996035;-66.68330469;1475;Canada;CAN
Cape Coast;5.11037152;-1.249986004;139265.5;Ghana;GHA
Cape Coral;26.60290977;-81.97968368;117387.5;United States of America;USA
Cape Dorset;64.31251972;-76.53857863;1326;Canada;CAN
Cape Girardeau;37.30582237;-89.51808659;38165.5;United States of America;USA
Cape Town;-33.92001097;18.43498816;2823929;South Africa;ZAF
Capenda-Camulemba;-9.4195943;18.43002722;79842.5;Angola;AGO
Cap-Haitien;19.7592224;-72.21251602;208151;Haiti;HTI
Capitan Arturo Prat Station;-62.49950682;-59.68331852;41;Antarctica;ATA
Capitan Pablo Lagerenza;-19.91611123;-60.78327722;1200;Paraguay;PRY
Capitao Poco;-1.74962319;-47.09000452;32704;Brazil;BRA
Capitol Hill;15.21125368;145.7505761;1764;Northern Mariana Islands;MNP
Caracarai;1.816231505;-61.12767481;11368;Brazil;BRA
Caracas;10.50099855;-66.91703719;2400339.5;Venezuela;VEN
Carahue;-38.70948606;-73.16998885;8592;Chile;CHL
Caratinga;-19.79002073;-42.13999658;47517.5;Brazil;BRA
Carazinho;-28.2900187;-52.80004358;49145;Brazil;BRA
Carbondale;37.72683026;-89.22024947;28473;United States of America;USA
Cardenas;22.00001243;-99.66999923;15331;Mexico;MEX
Cardiff;51.49999473;-3.22500757;603750;United Kingdom;GBR
Carhue;-37.1828609;-62.73331323;7190;Argentina;ARG
Carlini Station;-62.22414386;-58.65047599;40;Antarctica;ATA
Carlisle;54.87999514;-2.929986818;69270;United Kingdom;GBR
Carlsbad;32.420565;-104.2282998;25240;United States of America;USA
Carmelo;-33.98961912;-58.29999211;15113.5;Uruguay;URY
Carnarvon;-24.89983803;113.6501066;7392;Australia;AUS
Carnarvon;-30.94959796;22.13331539;5785;South Africa;ZAF
Carnot;4.933689798;15.8666178;32298;Central African Republic;CAF
Carora;10.18998395;-70.07999658;121749.5;Venezuela;VEN
Carpina;-7.840000795;-35.26000309;118134;Brazil;BRA
Carson City;39.16384849;-119.7663953;53767;United States of America;USA
Cartagena;10.39973859;-75.51439356;887000;Colombia;COL
Cartagena;37.60042971;-0.980028322;166276.5;Spain;ESP
Cartago;4.749980081;-75.91002832;123170;Colombia;COL
Cartago;9.86997764;-83.92997807;111770;Costa Rica;CRI
Cartwright;53.70140663;-57.01214114;505;Canada;CAN
Caruaru;-8.280025616;-35.98001083;238732.5;Brazil;BRA
Carupano;10.67000633;-63.23000126;119187.5;Venezuela;VEN
Casa Grande;32.87937421;-111.7566258;38396.5;United States of America;USA
Casablanca;33.59997622;-7.616367433;3162954.5;Morocco;MAR
Cascavel;-24.95957599;-53.46002914;229300;Brazil;BRA
Caserta;41.05996014;14.33735714;164744;Italy;ITA
Casey Station;-66.28608614;110.536214;125;Antarctica;ATA
Casma;-9.440006491;-78.20999129;27421;Peru;PER
Casper;42.86661989;-106.3124878;56149;United States of America;USA
Castanhal;-1.28959959;-47.93003076;125314.5;Brazil;BRA
Castello;39.97041424;-0.05000757;176360;Spain;ESP
Castelo Branco;39.81099615;-7.487999559;33479;Portugal;PRT
Castillos;-34.16960814;-53.82998071;7686;Uruguay;URY
Castries;14.00197349;-61.00000818;24298.5;Saint Lucia;LCA
Castro;-24.79002562;-50.00998132;38417.5;Brazil;BRA
Castro;-42.48076159;-73.76233415;25184.5;Chile;CHL
Cat Lake;51.71703575;-91.79998865;277;Canada;CAN
Catalao;-18.18004148;-47.9500037;53646.5;Brazil;BRA
Catamarca;-28.47000771;-65.78000065;162586;Argentina;ARG
Catanduva;-21.14001585;-48.97996668;105238;Brazil;BRA
Catania;37.49997072;15.07999914;482908;Italy;ITA
Catanzaro;38.9003762;16.60000972;90541;Italy;ITA
Catio;11.21670002;-15.16670049;9898;Guinea Bissau;GNB
Cauquenes;-35.96004148;-72.31998906;24155;Chile;CHL
Caxias;-4.833000876;-43.35002608;134640;Brazil;BRA
Caxias do Sul;-29.17999022;-51.17003972;377580.5;Brazil;BRA
Caxito;-8.579542217;13.65998246;15665.5;Angola;AGO
Cayambe;0.050370299;-78.15999435;27231.5;Ecuador;ECU
Cayenne;4.932992166;-52.33002059;57179.5;France;FRA
Cazombo;-11.88957273;22.90003861;298;Angola;AGO
Cebu;10.31997601;123.9000752;806817;Philippines;PHL
Cedar City;37.67742759;-113.061094;25371.5;United States of America;USA
Cedar Rapids;41.96998212;-91.66002303;149338.5;United States of America;USA
Ceduna;-32.09913464;133.6622674;1252.5;Australia;AUS
Ceerigaabo;10.58329807;47.33330461;165000;Somaliland;SOL
Celaya;20.53002464;-100.8000078;344799;Mexico;MEX
Celeken;39.43615488;53.12259119;1206;Turkmenistan;TKM
Central Coast;-33.42004148;151.3000048;3026;Australia;AUS
Centralia;46.71641075;-122.9529708;16993.5;United States of America;USA
Ceres;-15.30331785;-49.60519983;18658.5;Brazil;BRA
Cerrillos;-24.89963133;-65.48330042;11498;Argentina;ARG
Cerro de Pasco;-10.69000771;-76.26998051;108071;Peru;PER
Ceske Budejovice;48.98001935;14.46003699;97452;Czech Republic;CZE
Ceuta;35.88898378;-5.30699935;78674;Spain;ESP
Chabahar;25.30040529;60.62993201;56544;Iran;IRN
Chacabuco;-34.65004393;-60.48998763;26645;Argentina;ARG
Chachapoyas;-6.229608135;-77.87001205;23128.5;Peru;PER
Chachoengsao;13.67900105;101.0760037;49741;Thailand;THA
Chadron;42.82791424;-103.0030774;5686.5;United States of America;USA
Chagda;60.10001243;133.8999816;10;Russia;RUS
Chaghcharan;34.5167011;65.25000063;15000;Afghanistan;AFG
Chaguaramas;9.215934874;-63.75226913;12500;Venezuela;VEN
Chainat;15.17900402;100.1259997;15469;Thailand;THA
Chaiyaphum;15.8040082;102.0386189;55191;Thailand;THA
Chake Chake;-5.239539369;39.77001664;35822.5;Tanzania;TZA
Chalatenango;14.07200406;-89.09399649;29271;El Salvador;SLV
Chalkida;38.46399457;23.61239823;63200;Greece;GRC
Challapata;-18.89958413;-66.77999129;8565;Bolivia;BOL
Chaman;30.92504905;66.44632117;88568;Pakistan;PAK
Chamdo;31.16668805;97.23327917;93140;China;CHN
Chamical;-30.34958291;-66.3166604;8989;Argentina;ARG
Champasak;14.88330011;105.8667036;12994;Laos;LAO
Champoton;19.35043256;-90.72000289;25722.5;Mexico;MEX
Chanaral;-29.03002521;-71.43001754;13543;Chile;CHL
Chancay;-11.55961871;-77.26997115;18601;Peru;PER
Chandigarh;30.71999697;76.78000565;946685.5;India;IND
Chandrapur;19.9699813;79.30000688;461734.5;India;IND
Changchun;43.86500856;125.3399873;2860210.5;China;CHN
Changde;29.02999676;111.6800459;993390;China;CHN
Changhua;24.07340008;120.5134086;493294;Taiwan;TWN
Changling;44.26999676;123.9899922;46703.5;China;CHN
Changping;40.22476564;116.1943957;372410.5;China;CHN
Changsha;28.19996991;112.969993;2338969;China;CHN
Changting;25.8669857;116.3166621;87458;China;CHN
Changwon;35.21910219;128.583562;1081499;South Korea;KOR
Changyon;38.25173362;125.1020691;44176;North Korea;PRK
Changzhi;36.18387534;113.1052819;706000;China;CHN
Changzhou;31.77998395;119.9699792;1138009;China;CHN
Channel-Port aux Basques;47.56700482;-59.15004358;3232;Canada;CAN
Chanthaburi;12.61327272;102.0978918;94950.5;Thailand;THA
Chaoyang;41.55042116;120.4199776;440150.5;China;CHN
Chaozhou;23.68003908;116.630028;424787;China;CHN
Chapadinha;-3.739527569;-43.35999964;29807.5;Brazil;BRA
Chapaev;50.19149579;51.14492956;3515.5;Kazakhstan;KAZ
Chapayevsk;52.97432334;49.72434444;88655.5;Russia;RUS
Chapleau;47.83370689;-83.40001042;2663;Canada;CAN
Charagua;-19.79958087;-63.2199502;3025;Bolivia;BOL
Charana;-17.5996118;-69.46659733;197;Bolivia;BOL
Charata;-27.21628579;-61.19999597;18297;Argentina;ARG
Charikar;35.01826174;69.16791215;53676;Afghanistan;AFG
Charleroi;50.42039654;4.450001992;272749.5;Belgium;BEL
Charleston;32.79237693;-79.99210474;254295;United States of America;USA
Charleston;38.34973798;-81.63272811;87113;United States of America;USA
Charleville;-26.40000486;146.2500288;1900;Australia;AUS
Charlotte;35.20499453;-80.83003809;943574.5;United States of America;USA
Charlottesville;38.02918907;-78.47692591;61314;United States of America;USA
Charlottetown;46.24928164;-63.13132512;36847.5;Canada;CAN
Charters Towers;-20.08090737;146.2587105;8369.5;Australia;AUS
Chascomus;-35.56621539;-58.01662439;21054;Argentina;ARG
Chattanooga;35.06998985;-85.25000086;206571.5;United States of America;USA
Chau Doc;10.70039207;105.1166739;70239;Vietnam;VNM
Chauk;20.90847699;94.8230387;85016.5;Myanmar;MMR
Cheboksary;56.12997052;47.25002519;444027.5;Russia;RUS
Chegdomyn;51.11779584;133.0241178;7485.5;Russia;RUS
Chegga;25.38040041;-5.779967897;10;Mauritania;MRT
Chelyabinsk;55.15499127;61.43866817;1018802;Russia;RUS
Chelyuskin;77.71697329;104.2500085;885;Russia;RUS
Chemnitz;50.82998395;12.91997595;274931.5;Germany;DEU
Chengde;40.96037966;117.9300004;377629;China;CHN
Chengdu;30.67000002;104.0700195;4036718.5;China;CHN
Chennai;13.08998781;80.27999874;5745531.5;India;IND
Chenzhou;25.80042645;113.0300927;251017.5;China;CHN
Cheongju;36.64389895;127.5011991;719420.5;South Korea;KOR
Chepes;-31.34998696;-66.5999506;6020;Argentina;ARG
Cherbourg;49.65039187;-1.649987428;60991;France;FRA
Cheremkhovo;53.15880821;103.0738529;51686.5;Russia;RUS
Cherepanovo;54.23362632;83.36880245;15094.5;Russia;RUS
Cherepovets;59.14043276;37.90997514;265606.5;Russia;RUS
Cherkasy;49.43472028;32.07090002;285694.5;Ukraine;UKR
Cherkessk;44.29040895;42.06000606;101153;Russia;RUS
Cherlak;54.16047833;74.82002193;7060.5;Russia;RUS
Chernihiv;51.50492983;31.3015413;293656.5;Ukraine;UKR
Chernivtsi;48.30530601;25.92155961;267250.5;Ukraine;UKR
Chernobyl;51.38940716;30.09887569;0;Ukraine;UKR
Chernogorsk;53.8313253;91.22268998;39815.5;Russia;RUS
Chernyakhovsk;54.6316382;21.81085445;42356.5;Russia;RUS
Chernyshevskiy;63.01275454;112.4714188;5137;Russia;RUS
Cherskiy;68.75005292;161.3300386;3707;Russia;RUS
Chester;53.20002016;-2.919987428;83285.5;United Kingdom;GBR
Chesterfield Inlet;63.33829022;-90.70008163;374;Canada;CAN
Chetumal;18.50001935;-88.29999557;144464.5;Mexico;MEX
Chevery;50.48132306;-59.60978296;284;Canada;CAN
Cheyenne;41.14000694;-104.8197107;64185;United States of America;USA
Chiang Mai;18.7999752;98.98004594;299081.5;Thailand;THA
Chiang Rai;19.91187115;99.82645422;97941.5;Thailand;THA
Chiayi;23.47545209;120.4350671;387106;Taiwan;TWN
Chibemba;-15.74959552;14.0800085;1502;Angola;AGO
Chibia;-15.1896297;13.69000647;1411;Angola;AGO
Chicago;41.82999066;-87.75005497;5915976;United States of America;USA
Chiclayo;-6.762908916;-79.83658452;587083.5;Peru;PER
Chico;39.72862022;-121.8363982;83226.5;United States of America;USA
Chicoutimi;48.43330853;-71.06670638;53940;Canada;CAN
Chifeng;42.27001548;118.9499898;811827;China;CHN
Chignik;56.295671;-158.4022282;118;United States of America;USA
Chihuahua;28.64498151;-106.0849823;750633.5;Mexico;MEX
Chilca;-12.5196118;-76.73997766;6556;Peru;PER
Childress;34.4248871;-100.2139195;5662;United States of America;USA
Chilecito;-29.16552081;-67.49999903;20343;Argentina;ARG
Chililabombwe;-12.36959511;27.8199967;69698;Zambia;ZMB
Chillan;-36.60000242;-72.10599695;149874;Chile;CHL
Chilliwack;49.16664878;-121.949983;51942;Canada;CAN
Chilpancingo;17.54997398;-99.5000096;173818.5;Mexico;MEX
Chimaltenango;14.66199914;-90.8199985;82370;Guatemala;GTM
Chimbote;-9.070003236;-78.56999516;333406;Peru;PER
Chimboy;42.93113792;59.77075964;34277.5;Uzbekistan;UZB
Chimoio;-19.12003579;33.47003943;242538.5;Mozambique;MOZ
Chinandega;12.63037762;-87.13004114;132705;Nicaragua;NIC
Chincha Alta;-13.41960854;-76.13998845;138608;Peru;PER
Chingola;-12.53961058;27.85002071;165289.5;Zambia;ZMB
Chinhoyi;-17.35962645;30.18000769;52812;Zimbabwe;ZWE
Chiniot;31.71998761;72.97997921;201781;Pakistan;PAK
Chinsali;-10.54960285;32.0599963;7482.5;Zambia;ZMB
Chipata;-13.62956989;32.64001257;82455;Zambia;ZMB
Chiquimula;14.79699906;-89.54399653;41521;Guatemala;GTM
Chiquinquira;5.620392068;-73.81994918;49634.5;Colombia;COL
Chiradzulu;-15.7;35.1833333;1580;Malawi;MWI
Chirala;15.86041302;80.33999508;170000.5;India;IND
Chiramba;-16.89210976;34.65585852;556;Mozambique;MOZ
Chirchiq;41.45497479;69.55998124;155093.5;Uzbekistan;UZB
Chiredzi;-21.04958209;31.66002071;17816.5;Zimbabwe;ZWE
Chiromo;-16.55001178;35.1332454;25235;Malawi;MWI
Chisinau;47.00502362;28.85771114;662064;Moldova;MDA
Chistopol;55.36477175;50.64067094;52232.5;Russia;RUS
Chita;52.05502545;113.4650016;293153.5;Russia;RUS
Chitado;-17.31962889;13.92001827;468.5;Angola;AGO
Chitipa;-9.716217022;33.26664099;11118;Malawi;MWI
Chitre;7.970016092;-80.42003727;44024;Panama;PAN
Chittagong;22.32999229;91.79996741;4224611;Bangladesh;BGD
Chitungwiza;-18.00000079;31.10000321;331071;Zimbabwe;ZWE
Chivilcoy;-34.89995115;-60.03998926;43719;Argentina;ARG
Chlef;36.17041363;1.319960489;449167;Algeria;DZA
Choele Choel;-39.26660968;-65.68331405;9895.5;Argentina;ARG
Chokurdakh;70.61831097;147.8945796;2506;Russia;RUS
Cholpon Ata;42.65133588;77.08107255;14086.5;Kyrgyzstan;KGZ
Choluteca;13.30067263;-87.19081262;87650.5;Honduras;HND
Choma;-16.80947915;26.97002274;42324;Zambia;ZMB
Chon Buri;13.40040814;100.9999743;221340.5;Thailand;THA
Chonchi;-42.61002317;-73.80994979;381;Chile;CHL
Chone;-0.689584535;-80.09000574;40379;Ecuador;ECU
Chongjin;41.78461875;129.79;499807;North Korea;PRK
Chongju;39.68128461;125.2163256;85417;North Korea;PRK
Chongqing;29.56497703;106.5949816;5214014;China;CHN
Chos Malal;-37.38295205;-70.26657434;8556;Argentina;ARG
Chosan;40.82547833;125.8008378;7786;North Korea;PRK
Chosica;-11.93003538;-76.71000533;44572.5;Peru;PER
Chota;-6.549588604;-78.65004195;13452;Peru;PER
Choybalsan;48.06658673;114.5060233;33376;Mongolia;MNG
Christchurch;-43.53503131;172.6300207;295351.5;New Zealand;NZL
Christiansted;17.75037518;-64.749986;32543;United States Virgin Islands;VIR
Chukai;4.233241596;103.4478869;63535.5;Malaysia;MYS
Chulucanas;-5.089574362;-80.17000086;60435;Peru;PER
Chumbicha;-28.86662433;-66.23330632;2572;Argentina;ARG
Chumikan;54.7113945;135.3145141;1305;Russia;RUS
Chumphon;10.51267743;99.18721676;70760.5;Thailand;THA
Chuncheon;37.87470237;127.7341565;218127.5;South Korea;KOR
Chuquicamata;-22.31999551;-68.92998926;11941;Chile;CHL
Chur;46.85002016;9.500029662;35361;Switzerland;CHE
Churchill;58.76598533;-94.1659941;961.5;Canada;CAN
Churchill Falls;53.52640851;-63.98067896;75;Canada;CAN
Chusovoy;58.2934302;57.81304968;61159;Russia;RUS
Chuxiong;25.03641624;101.5455741;254370;China;CHN
Ciego de Avila;21.83999636;-78.76194727;122343.5;Cuba;CUB
Cienaga;11.01039899;-74.25000045;109741;Colombia;COL
Cienfuegos;22.14444806;-80.44029444;146549.5;Cuba;CUB
Cilacap;-7.718819561;109.0154024;1174964;Indonesia;IDN
Cincinnati;39.16188479;-84.45692265;971191;United States of America;USA
Circle;65.82589032;-144.0605197;100;United States of America;USA
Cirebon;-6.733298321;108.5666442;254298;Indonesia;IDN
Ciudad Altamirano;18.32039207;-100.6500169;24533;Mexico;MEX
Ciudad Bolivar;8.099982319;-63.60000452;317971.5;Venezuela;VEN
Ciudad Camargo;27.69041445;-105.1700511;35904.5;Mexico;MEX
Ciudad Constitucion;25.04000775;-111.6599909;37605.5;Mexico;MEX
Ciudad Cortes;8.960369079;-83.53000248;3515.5;Costa Rica;CRI
Ciudad del Carmen;18.65365928;-91.82448019;148751.5;Mexico;MEX
Ciudad del Este;-25.51669961;-54.61605676;320872;Paraguay;PRY
Ciudad Guayana;8.370017516;-62.61998682;634317.5;Venezuela;VEN
Ciudad Guzman;19.71041058;-103.4600004;90480;Mexico;MEX
Ciudad Hidalgo;19.67997316;-100.569996;59573.5;Mexico;MEX
Ciudad Jurez;31.69037701;-106.4900481;1343000;Mexico;MEX
Ciudad Madero;22.31890769;-97.836106;165411.5;Mexico;MEX
Ciudad Mante;22.73335268;-98.95001734;78299.5;Mexico;MEX
Ciudad Obregon;27.46660382;-109.9249805;273082;Mexico;MEX
Ciudad Valles;21.97998781;-99.02001306;112234;Mexico;MEX
Ciudad Victoria;23.71995913;-99.12998051;272411.5;Mexico;MEX
Civitavecchia;42.10041343;11.79999263;55674;Italy;ITA
Clare;-33.8328845;138.6000048;2729;Australia;AUS
Clarksburg;39.28327272;-80.33691573;22502.5;United States of America;USA
Clarksville;36.5300816;-87.35943282;122115;United States of America;USA
Cleburne;32.35152529;-97.39248967;32263;United States of America;USA
Clermont-Ferrand;45.77998212;3.080008096;185865.5;France;FRA
Cleveland;41.4699868;-81.69499821;1169757;United States of America;USA
Cliza;-17.58999998;-65.9299915;12235;Bolivia;BOL
Cloncurry;-20.69999103;140.4999922;1202;Australia;AUS
Clovis;34.40506919;-103.2047706;33477.5;United States of America;USA
Cluj-Napoca;46.78842185;23.5984456;299444.5;Romania;ROU
Coalcoman;18.78038983;-103.1499677;9687.5;Mexico;MEX
Coari;-4.079971905;-63.12998153;51897.5;Brazil;BRA
Coatzacoalcos;18.12040428;-94.4200096;259001;Mexico;MEX
Cobalt;47.38370852;-79.68331222;1372;Canada;CAN
Coban;15.46999758;-90.3799978;59284.5;Guatemala;GTM
Cobija;-11.03334593;-68.73330876;35511;Bolivia;BOL
Cobram;-35.91963051;145.6500138;4659;Australia;AUS
Coburg;50.26660748;10.96660681;51477.5;Germany;DEU
Cochabamba;-17.41001097;-66.16997685;804138;Bolivia;BOL
Cochrane;49.06701662;-81.01656417;4441;Canada;CAN
Cochrane;-47.26627643;-72.54994918;4441;Chile;CHL
Codo;-4.479585756;-43.8799679;83288;Brazil;BRA
Cody;44.52321128;-109.0571007;8976.5;United States of America;USA
Coeur d'Alene;47.67808331;-116.7794458;34514;United States of America;USA
Coffeyville;37.03806093;-95.6263184;10955;United States of America;USA
Coffs Harbour;-30.3070532;153.1122973;48961;Australia;AUS
Coihaique;-45.56999754;-72.07000431;43221;Chile;CHL
Coimbatore;10.99996035;76.95002112;1327911.5;India;IND
Coimbra;40.20037437;-8.41668034;97856.5;Portugal;PRT
Cojutepeque;13.71670204;-88.9333016;48411;El Salvador;SLV
Colac;-38.33953449;143.5800109;7450;Australia;AUS
Cold Bay;55.20000144;-162.7150916;154;United States of America;USA
Colesberg;-30.71953449;25.10000769;7491;South Africa;ZAF
Colider;-10.81728676;-55.45057947;27139;Brazil;BRA
Colima;19.22997479;-103.7200104;175261;Mexico;MEX
Colinas;-6.039542217;-44.2399976;13562.5;Brazil;BRA
Collipulli;-37.95997109;-72.43000818;11307.5;Chile;CHL
Cologne;50.93000368;6.950004434;983697.5;Germany;DEU
Colombo;6.931965758;79.85775061;217000;Sri Lanka;LKA
Colon;22.71958091;-80.90579574;40677;Cuba;CUB
Colon;9.365021382;-79.8749801;170488;Panama;PAN
Colonia del Sacramento;-34.47999901;-57.84000247;21714;Uruguay;URY
Colorado Springs;38.86296246;-104.7919863;427272;United States of America;USA
Columbia;35.61499534;-87.03526656;74866;United States of America;USA
Columbia;38.95207847;-92.33390955;244754;United States of America;USA
Columbia;34.0399752;-80.89998214;257185.5;United States of America;USA
Columbus;32.47043276;-84.98001734;202225;United States of America;USA
Columbus;39.97997438;-82.9900096;1003418;United States of America;USA
Comallo;-41.03332355;-70.26657434;741;Argentina;ARG
Comandante Fontana;-25.33329995;-59.68331852;4277;Argentina;ARG
Comayagua;14.46039512;-87.64998356;64963;Honduras;HND
Combarbala;-31.18002317;-70.99999211;5134;Chile;CHL
Comendador;18.875997;-71.70699546;35901;Dominican Republic;DOM
Comilla;23.47041363;91.16998002;389411;Bangladesh;BGD
Como;45.81000612;9.08000362;167438;Italy;ITA
Comodoro Rivadavia;-45.87003091;-67.49999903;123291;Argentina;ARG
Comondante Luis Piedrabuena;-49.97454865;-68.90347273;410;Argentina;ARG
Compostela;21.23042116;-104.8999901;15192;Mexico;MEX
Conakry;9.531522846;-13.68023503;1494000;Guinea;GIN
Conceicao do Araguaia;-8.250001608;-49.29002527;27115;Brazil;BRA
Concepcion;-36.83001422;-73.05002202;550864;Chile;CHL
Concepcion;-23.40638914;-57.43441187;53620.5;Paraguay;PRY
Concepcion del Uruguay;-32.47999551;-58.23999577;48275;Argentina;ARG
Concord;43.20807192;-71.53804712;42646.5;United States of America;USA
Concordia;-31.38957111;-58.02998275;132760.5;Argentina;ARG
Concordia;-27.23003172;-52.03001306;46124.5;Brazil;BRA
Concordia Research Station;-74.66630939;124.1670357;15;Antarctica;ATA
Conroe;30.31206321;-95.45586369;41643;United States of America;USA
Conselheiro Lafaiete;-20.6700187;-43.78999923;102926;Brazil;BRA
Constanta;44.20266237;28.60997432;285112.5;Romania;ROU
Constantine;36.35998863;6.599948281;527638;Algeria;DZA
Constitucion;-35.32958901;-72.41998295;26902.5;Chile;CHL
Contamana;-7.340031312;-75.01997929;16403;Peru;PER
Conway;35.09128054;-92.4513184;56759.5;United States of America;USA
Cooma;-36.23955931;149.1200345;5661.5;Australia;AUS
Coos Bay;43.36661521;-124.2165888;23685;United States of America;USA
Copiapo;-27.35999795;-70.33998071;117316.5;Chile;CHL
Coquimbo;-29.95291461;-71.34361454;159082.5;Chile;CHL
Coracora;-15.01961424;-73.78997685;6433.5;Peru;PER
Coral Gables;25.71541872;-80.29107874;98700.5;United States of America;USA
Coral Harbour;64.15377016;-83.17658736;834;Canada;CAN
Coral Springs;26.27083701;-80.27082158;185548;United States of America;USA
Cordoba;18.92038129;-96.91998621;177483;Mexico;MEX
Cordoba;37.87999921;-4.770003704;300512;Spain;ESP
Cordova;60.5427761;-145.7574962;1622.5;United States of America;USA
Cork;51.89860089;-8.49577112;162852;Ireland;IRL
Corner Brook;48.94999534;-57.93334782;19742;Canada;CAN
Cornwall;45.01705711;-74.73333012;47601.5;Canada;CAN
Coro;11.42001223;-69.67999516;184098;Venezuela;VEN
Coro Coro;-17.1696122;-68.44996688;1884;Bolivia;BOL
Coroata;-4.12958128;-44.15000309;34129;Brazil;BRA
Coroico;-16.18962034;-67.72001144;2361;Bolivia;BOL
Coronel;-37.02995034;-73.1600153;78594.5;Chile;CHL
Coronel Bogado;-27.17003538;-56.25003972;14297;Paraguay;PRY
Coronel Oviedo;-25.44998533;-56.4399506;69693.5;Paraguay;PRY
Coronel Suarez;-37.46661619;-61.9166189;20713;Argentina;ARG
Corovode;40.51670403;20.23329663;14046;Albania;ALB
Corozal;18.39799811;-88.3880005;8724;Belize;BLZ
Corpus Christi;27.74281435;-97.40189478;249977.5;United States of America;USA
Corrientes;-27.48996417;-58.80998682;339945;Argentina;ARG
Corriverton;5.900039082;-57.16998356;11787;Guyana;GUY
Corum;40.5199931;34.95000077;168544;Turkey;TUR
Corumba;-19.01601113;-57.65000594;70035.5;Brazil;BRA
Corvallis;44.57235557;-123.2799793;54865.5;United States of America;USA
Cotabato;7.216909606;124.2484261;229476;Philippines;PHL
Cotonou;6.400008564;2.519990599;726292;Benin;BEN
Cottbus;51.7704175;14.32996741;94910.5;Germany;DEU
Cottica;3.850009175;-54.23328943;24605;Suriname;SUR
Cotui;19.05900306;-70.1520026;41641;Dominican Republic;DOM
Council Bluffs;41.26227338;-95.86080021;80284.5;United States of America;USA
Courtenay;49.68333559;-124.9999777;28946;Canada;CAN
Coventry;52.42040367;-1.499996583;348292;United Kingdom;GBR
Covilha;40.28334088;-7.499992108;21219;Portugal;PRT
Covington;39.0840084;-84.50859908;313064.5;United States of America;USA
Cowell;-33.68286782;136.9166451;537;Australia;AUS
Cowra;-33.82962889;148.6800097;5729.5;Australia;AUS
Cozumel;20.51000002;-86.95000045;67634;Mexico;MEX
Cradock;-32.19954751;25.6100024;32898;South Africa;ZAF
Craig;40.51728009;-107.5503968;9315.5;United States of America;USA
Craiova;44.3262724;23.82587357;301143.5;Romania;ROU
Cranbourne;-38.09960081;145.2833695;249955;Australia;AUS
Cranbrook;49.5166791;-115.7666653;17990;Canada;CAN
Crateus;-5.165590394;-40.66600387;40338;Brazil;BRA
Crato;-7.229598776;-39.42000757;164149.5;Brazil;BRA
Crato;-7.46389972;-63.03996118;164149.5;Brazil;BRA
Crescent City;41.7564551;-124.2004916;9439.5;United States of America;USA
Creston;49.09996035;-116.516697;4816;Canada;CAN
Crestview;30.75420677;-86.57260746;19552.5;United States of America;USA
Criciuma;-28.68002073;-49.38996749;183085.5;Brazil;BRA
Cristalina;-16.76999835;-47.61002446;25627.5;Brazil;BRA
Crookston;47.77376223;-96.60773137;8215.5;United States of America;USA
Crotone;39.08333661;17.12333695;59313.5;Italy;ITA
Cruzeiro do Sul;-7.629987774;-72.66996769;56862;Brazil;BRA
Cuamba;-14.78960244;36.53998124;68204.5;Mozambique;MOZ
Cuangar;-17.60953367;18.61998979;425;Namibia;NAM
Cuauhtemoc;28.42574424;-106.8695856;84967.5;Mexico;MEX
Cubal;-13.03958006;14.23999874;4837;Angola;AGO
Cucuta;7.920019144;-72.51997685;721772;Colombia;COL
Cuddalore;11.72040733;79.77000403;158569;India;IND
Cuenca;-2.89999225;-78.99999475;281921;Ecuador;ECU
Cuencame;24.8704057;-103.6999858;5416;Mexico;MEX
Cuernavaca;18.92110476;-99.23999964;591551.5;Mexico;MEX
Cuevo;-20.45003213;-63.52998295;953;Bolivia;BOL
Cuiaba;-15.56960651;-56.08498519;603143.5;Brazil;BRA
Cuilapa;14.27900409;-90.2979985;16484;Guatemala;GTM
Cuito Caunavale;-15.15960569;19.16998205;149;Angola;AGO
Culiacan;24.82999473;-107.3799679;695734.5;Mexico;MEX
Cumana;10.44999392;-64.18002079;287693;Venezuela;VEN
Cumberland;39.65317263;-78.76277409;20831.5;United States of America;USA
Curanilahue;-37.48000039;-73.34000431;22352.5;Chile;CHL
Curepipe;-20.31619017;57.51663367;192087.5;Mauritius;MUS
Curico;-34.97999795;-71.24002914;108074.5;Chile;CHL
Curitiba;-25.420013;-49.3199976;2291430;Brazil;BRA
Curvelo;-18.75959267;-44.429986;45937;Brazil;BRA
Cusco;-13.52502846;-71.97215499;336661;Peru;PER
Cutral Co;-38.94001463;-69.24002202;47597;Argentina;ARG
Cuttack;20.47000246;85.88994055;580000;India;IND
Cuya;-19.11667682;-70.13330082;20;Chile;CHL
Cyangugu;-2.479604473;28.89998246;19900;Rwanda;RWA
Da Lat;11.93042035;108.4199865;193698;Vietnam;VNM
Da Nang;16.06003908;108.2499711;943534.5;Vietnam;VNM
Dline;65.18334556;-123.4166635;393.5;Canada;CAN
Düsseldorf;51.22037355;6.779988972;906196.5;Germany;DEU
Daan;45.49999921;124.2999991;84795.5;China;CHN
Dabola;10.747998;-11.10899649;13057;Guinea;GIN
Dabou;5.320358703;-4.389949383;71287;Ivory Coast;CIV
Daegu;35.86678876;128.6069714;2460000;South Korea;KOR
Daejeon;36.33554567;127.425028;1458165;South Korea;KOR
Dagupan;16.04789512;120.3408093;163676;Philippines;PHL
Dahuk;36.86670013;43.00000263;620500;Iraq;IRQ
Dajabon;19.548;-71.70499757;16398;Dominican Republic;DOM
Dakar;14.71583173;-17.47313013;2540200;Senegal;SEN
Dalaba;10.65600001;-12.27200357;6349;Guinea;GIN
Dalandzadgad;43.58355288;104.4402811;13491;Mongolia;MNG
Dalby;-27.19385822;151.2657434;9818.5;Australia;AUS
Dalhart;36.06080792;-102.5186109;6763.5;United States of America;USA
Dali;34.79525209;109.937775;109696;China;CHN
Dali;25.70001914;100.1799727;145362.5;China;CHN
Dalian;38.92283839;121.6298308;2601153.5;China;CHN
Dallas;32.82002382;-96.84001693;3004852;United States of America;USA
Dalnegorsk;44.5372156;135.5172473;8123;Russia;RUS
Dalnerechensk;45.92728579;133.7223181;25917.5;Russia;RUS
Daloa;6.889978657;-6.450004518;235410;Ivory Coast;CIV
Dalton;34.76972394;-84.97030217;45077.5;United States of America;USA
Daman;20.41700828;72.85001298;39737;India;IND
Damanhr;31.05044191;30.47001583;371350;Egypt;EGY
Damascus;33.500034;36.29999589;2466000;Syria;SYR
Damaturu;11.74899608;11.96600457;255895;Nigeria;NGA
Dandeldhura;29.30000416;80.60000455;19014;Nepal;NPL
Dandong;40.14360781;124.3935852;750986.5;China;CHN
Dangriga;16.97003522;-88.22000045;8506;Belize;BLZ
Danjiangkou;32.5200163;111.5000052;92008;China;CHN
Danville;36.58625388;-79.39531946;43176;United States of America;USA
Daqing;46.57995913;125.0000081;948244;China;CHN
Dar es Salaam;-6.800012595;39.26834184;2814326;Tanzania;TZA
Dar'a;32.62500014;36.10500351;122225;Syria;SYR
Darhan;49.61669883;106.3500354;74738;Mongolia;MNG
Darnah;32.76481113;22.63913928;103378;Libya;LBY
Darregueira;-37.69957355;-63.16659428;3412;Argentina;ARG
Daru;-9.109151958;143.2337226;15214;Papua New Guinea;PNG
Darwin;-12.42535398;130.8500386;82973;Australia;AUS
Dasoguz;41.83999005;59.96495967;183962;Turkmenistan;TKM
Datong;40.08001996;113.2999987;1462839;China;CHN
Daugavpils;55.87995994;26.50999914;109969.5;Latvia;LVA
Dauphin;51.15001609;-100.0499502;8747.5;Canada;CAN
Davangere;14.47000694;75.92000647;469344.5;India;IND
Davao;7.110016906;125.6299955;1307252;Philippines;PHL
Davenport;41.55398684;-90.58753036;178282.5;United States of America;USA
David;8.433321146;-82.43332524;96448;Panama;PAN
Davis Station;-68.77767439;78.14073509;45;Antarctica;ATA
Dawei;14.09796246;98.19497758;141497.5;Myanmar;MMR
Dawmat al Jandal;29.81529767;39.86639319;22583;Saudi Arabia;SAU
Dawra;27.46290895;-12.99218917;10;Morocco;MAR
Dawson City;64.0666437;-139.4166687;1319;Canada;CAN
Dawson Creek;55.76696942;-120.233266;10676.5;Canada;CAN
Dawwah;20.63301577;58.90802161;1485.5;Oman;OMN
Dayr az Zawr;35.33038739;40.12999467;275853;Syria;SYR
Dayton;39.750376;-84.19998743;466067;United States of America;USA
Daytona Beach;29.21055422;-81.0230754;140775.5;United States of America;USA
De Aar;-30.64997801;24.00002315;18669.5;South Africa;ZAF
De Kastri;51.46658592;140.7833341;3615;Russia;RUS
Dease Lake;58.45034568;-130.033288;303;Canada;CAN
Debre Birhan;9.68037681;39.53003129;61509;Ethiopia;ETH
Debre Markos;10.33997479;37.72001257;65339;Ethiopia;ETH
Debrecen;47.53046958;21.63003861;217705;Hungary;HUN
Decatur;39.8407064;-88.95473596;74967.5;United States of America;USA
Dedougou;12.455001;-3.464000439;45341;Burkina Faso;BFA
Dedza;-14.3666667;34.3333333;15608;Malawi;MWI
Deer Lake;49.17440025;-57.42691878;3953;Canada;CAN
Deer Lake;52.61703249;-94.06659448;3743;Canada;CAN
Dehibat;32.01704958;10.7000081;3525;Tunisia;TUN
Dehra Dun;30.32040895;78.05000565;646321.5;India;IND
Del Rio;29.36294802;-100.8963843;35803.5;United States of America;USA
Delano;35.76193728;-119.2430681;42396.5;United States of America;USA
Delemont;47.36999713;7.344999488;11315;Switzerland;CHE
Delhi;28.6699929;77.23000403;11779606.5;India;IND
Delicias;28.19996991;-105.4999793;108876;Mexico;MEX
Demba;-5.509600404;22.25997432;17008.5;Congo (Kinshasa);COD
Dembi Dolo;8.533728454;34.79998409;27264;Ethiopia;ETH
Deming;32.26109153;-107.7557848;15523;United States of America;USA
Denali Park;63.73309816;-148.9140994;1063;United States of America;USA
Dengzhou;32.68036826;112.0800215;59338;China;CHN
Deniliquin;-35.5295768;144.9500048;6019.5;Australia;AUS
Denizli;37.77039349;29.08002315;342791;Turkey;TUR
Denow;38.27715843;67.88716345;143134;Uzbekistan;UZB
Denpasar;-8.650028871;115.2199849;569133.5;Indonesia;IDN
Denton;33.21576194;-97.12883651;138952.5;United States of America;USA
Denver;39.73918805;-104.984016;1930799.5;United States of America;USA
Dera Ghazi Khan;30.06039899;70.63505774;236093;Pakistan;PAK
Dera Ismail Khan;31.82899904;70.89855587;66676.5;Pakistan;PAK
Derbent;42.05780621;48.27740434;97259;Russia;RUS
Derby;-17.29999184;123.9666345;3199;Australia;AUS
Derzhavinsk;51.10206036;66.30746659;14852;Kazakhstan;KAZ
Des Moines;41.57998008;-93.61998092;286917.5;United States of America;USA
Desaguadero;-16.56458453;-69.04499516;5120;Peru;PER
Dese;11.12997825;39.63002519;159929;Ethiopia;ETH
Detroit;42.32996014;-83.08005579;2526135;United States of America;USA
Deva;45.88332304;22.91667357;67802;Romania;ROU
Devils Lake;48.11221702;-98.85968693;7312;United States of America;USA
Devonport;-41.19266757;146.3311017;17932.5;Australia;AUS
Deyang;31.13333091;104.3999735;152194;China;CHN
Dezful;32.38038658;48.4700024;315482;Iran;IRN
Dezhou;37.45041302;116.3000223;379555;China;CHN
Dhaka;23.72305971;90.40857947;9899167;Bangladesh;BGD
Dhamar;14.5574693;44.3874609;191259;Yemen;YEM
Dhanbad;23.80039349;86.41998572;732818;India;IND
Dhangarhi;28.69499706;80.5930026;92294;Nepal;NPL
Dhule;20.89997622;74.76999914;423026.5;India;IND
Dhuusa Mareeb;5.741999984;46.5080045;447;Somalia;SOM
Diamantina;-18.23998615;-43.60998438;25184.5;Brazil;BRA
Diapaga;12.07700108;1.796004571;26013;Burkina Faso;BFA
Dibaya;-6.509539369;22.87001461;603;Congo (Kinshasa);COD
Dibrugarh;27.48332115;94.8999849;144260.5;India;IND
Dickinson;46.88399742;-102.7888011;15987.5;United States of America;USA
Dickson;73.50697186;80.54509884;1113;Russia;RUS
Diebougou;10.95200113;-3.248000411;12732;Burkina Faso;BFA
Diego de Almagro;-26.36961912;-70.04999841;18137;Chile;CHL
Diekirch;49.88330105;6.166701555;6242;Luxembourg;LUX
Dieppe;49.93373374;1.083334105;39084;France;FRA
Diffa;13.31705406;12.60888383;29468;Niger;NER
Digby;44.62258506;-65.7604928;3000.5;Canada;CAN
Dijon;47.33040428;5.030018268;159864;France;FRA
Dikhil;11.10400201;42.37200058;12043;Djibouti;DJI
Dila;6.410421365;38.3100024;47021;Ethiopia;ETH
Dili;-8.559388409;125.5794559;213947;East Timor;TLS
Dillingham;59.05656031;-158.4803121;1710;United States of America;USA
Dillon;45.21567548;-112.6839852;4213.5;United States of America;USA
Dilolo;-10.69961953;22.33330318;7854;Congo (Kinshasa);COD
Dimbokro;6.650458393;-4.710007366;46467.5;Ivory Coast;CIV
Dimitrovgrad;54.25042116;49.56001339;121213.5;Russia;RUS
Dindigul;10.37997235;78.00003454;200797;India;IND
Dinguiraye;11.29899604;-10.72600144;6062;Guinea;GIN
Dingzhou;38.50042645;114.9999983;152934;China;CHN
Diourbel;14.66038291;-16.24000126;148024;Senegal;SEN
Dire Dawa;9.58999473;41.86001827;250325.5;Ethiopia;ETH
Dirj;30.1679118;10.45666378;931;Libya;LBY
Dispur;26.14402305;91.76663611;16140;India;IND
Diu;20.71967334;70.99039497;23779;India;IND
Divinopolis;-20.14953367;-44.89998316;181457;Brazil;BRA
Divo;5.839002037;-5.360003483;127867;Ivory Coast;CIV
Diyarbakir;37.92043601;40.23004024;640586.5;Turkey;TUR
Djado;21.01498212;12.30750688;10;Niger;NER
Djambala;-2.539600811;14.74999345;9650.5;Congo (Brazzaville);COG
Djanet;24.5529057;9.482252969;666;Algeria;DZA
Djelfa;34.67998781;3.250023558;170901;Algeria;DZA
Djenne;13.89999005;-4.549991294;27663;Mali;MLI
Djibo;14.09900404;-1.627001421;22223;Burkina Faso;BFA
Djibouti;11.59501446;43.14800167;763506.5;Djibouti;DJI
Djougou;9.700427265;1.680041869;152708.5;Benin;BEN
Dnipropetrovsk;48.47997235;35.00002356;949424.5;Ukraine;UKR
Doba;8.650439676;16.8500203;26966.5;Chad;TCD
Dobrich;43.58505149;27.83999548;73813;Bulgaria;BGR
Doctor Pedro P. Pena;-22.47998574;-62.29998051;6143;Argentina;ARG
Dodge City;37.76005821;-100.018195;25237.5;United States of America;USA
Dodoma;-6.183306052;35.75000362;199405;Tanzania;TZA
Doha;25.28655601;51.53296789;1090655;Qatar;QAT
Dolbeau;48.86658958;-72.23332768;13126.5;Canada;CAN
Dolinsk;47.35042889;142.8000069;11791.5;Russia;RUS
Dolo Bay;4.183348001;42.08331213;11810;Ethiopia;ETH
Dolores;-36.33004474;-57.68997766;21586.5;Argentina;ARG
Dombarovskiy;50.75458803;59.54002437;5564;Russia;RUS
Dondo;-9.690017071;14.43001298;2353;Angola;AGO
Dondo;-19.61959186;34.7300142;75217.5;Mozambique;MOZ
Donegal;54.65000917;-8.116672812;2229;Ireland;IRL
Donetsk;48.00000165;37.82998002;874137.5;Ukraine;UKR
Dong Ha;16.8499981;107.1333007;17662;Vietnam;VNM
Dong Hoi;17.48333722;106.6000459;110152.5;Vietnam;VNM
Dongguan;23.0488889;113.7447222;4528000;China;CHN
Dongola;19.16659365;30.48329667;26404;Sudan;SDN
Dori;14.0339971;-0.027998519;37806;Burkina Faso;BFA
Dortmund;51.52996706;7.450025593;588462;Germany;DEU
Dosso;13.05001609;3.200000772;46481.5;Niger;NER
Dothan;31.22345461;-85.39058659;61715;United States of America;USA
Douala;4.060409769;9.709991006;1622041;Cameroon;CMR
Douglas;54.15042727;-4.480021404;31036;Isle of Man;IMN
Douglas;42.75647158;-105.3845341;5838;United States of America;USA
Douglas;31.50777834;-82.85068994;12159;United States of America;USA
Douglas;31.35864016;-109.5483627;23438.5;United States of America;USA
Douliou;23.7075;120.5438889;105688;Taiwan;TWN
Douma;33.5833364;36.39998979;406912;Syria;SYR
Dourados;-22.23002684;-54.80999841;144743.5;Brazil;BRA
Dover;51.13371218;1.300013386;32270;United Kingdom;GBR
Dover;39.15808657;-75.524703;54662.5;United States of America;USA
Drammen;59.75724265;10.19073686;85437.5;Norway;NOR
Dresden;51.04997052;13.75000281;552184.5;Germany;DEU
Drobeta-Turnu Severin;44.64589113;22.6658927;104462;Romania;ROU
Drogheda;53.71926495;-6.347762697;34987;Ireland;IRL
Drohobych;49.34436403;23.49938188;101837.5;Ukraine;UKR
Drummondville;45.88333498;-72.4833641;56806;Canada;CAN
Dryden;49.78332949;-92.83333643;7862;Canada;CAN
Dubai;25.22999615;55.27997432;1258173.5;United Arab Emirates;ARE
Dubasari;47.2630556;29.1608333;23254;Moldova;MDA
Dubbo;-32.25995726;148.5973274;30467.5;Australia;AUS
Dublin;53.33306114;-6.248905682;1013988;Ireland;IRL
Dublin;32.53745709;-82.91828272;19258.5;United States of America;USA
Dubrovnik;42.66094769;18.09139156;32711;Croatia;HRV
Dubuque;42.50093162;-90.66445073;59834;United States of America;USA
Dudinka;69.41820335;86.22501054;22913;Russia;RUS
Duisburg;51.42997316;6.750016641;882381;Germany;DEU
Duitama;5.830456766;-73.02004968;96598;Colombia;COL
Dulan;36.16658958;98.26660111;50;China;CHN
Duluth;46.78333173;-92.10637822;82026.5;United States of America;USA
Dumas;35.86239626;-101.9668875;13551.5;United States of America;USA
Dumfries;55.06708966;-3.550000652;31044;United Kingdom;GBR
Dumont d'Urville Station;-66.77505091;139.9636836;75;Antarctica;ATA
Dumyat;31.42039349;31.82001094;188149;Egypt;EGY
Dundalk;54.00041058;-6.416673219;38884;Ireland;IRL
Dundee;56.47038902;-3.000008384;151013.5;United Kingdom;GBR
Dundo;-7.380028871;20.82998409;11985;Angola;AGO
Dund-Us;48.01664146;91.63325924;26596.5;Mongolia;MNG
Dunedin;-45.87995278;170.4799711;92438.5;New Zealand;NZL
Dunhua;43.35049217;128.2200183;170357;China;CHN
Dunhuang;40.14267763;94.66201493;139225;China;CHN
